name,kategorie,lat,lng,beschreibung,link
Hochgericht der Stadt Wels,Richtstätten,48.157892,13.99153,"Dreischläfriger Galgen, LH, zahlreiche Skelettfunde",orte/wels-hochgericht.html
Auerspergisches Blutgerüst,Richtstätten,48.18309,14.066862,"unter Christoph Weiß errichtetes Hochgericht, JL,",orte/auerspergwels.html
Todengraberhäusl,Galgenhäuser,48.1848,14.08349,"Nähe Auerspergisches Blutgerüst, FL",https://doris.ooe.gv.at/themen/geschichte/hofnamenreport.aspx?hn_nr=27161
Schindergraben,Flurnamen,48.1871,14.06051,WZ 1931-05-29 Seite 17,https://anno.onb.ac.at/cgi-content/anno?aid=wez&datum=19310529&seite=17&zoom=33&query=%22Schindergraben%22&ref=anno-search
Wölflkreuzsäule,Kleindenkmäler,48.17293,14.01892,"Errichtung unbekannt, nach Beschädigung durch LKW an den Straßenrand versetzt",
Galgen in der Flez,Richtstätten,48.17285,14.01854,"zahlreiche Hinrichtungen im 19. Jhdt., daneben ehem. Gasthaus 'zur schönen Aussicht'",orte/flez.html
Galgenhügel,Flurnamen,48.15042,13.9805,ein Galgenstandort aus viel früherer Zeit,
Wasenmeisterhaus,Abdecker,48.2007,14.10826,"FK, FL",https://doris.ooe.gv.at/themen/geschichte/hofnamenreport.aspx?hn_nr=27473
Schandkreuz,Pranger,48.1566,14.0285,Auf dem Stich von Merian aus dem Jahre 1640 (bzw. Vischer 1674) rechts neben der kaiserlichen Burg zu sehen.<br><img src='bilder/Schandkreuz.jpg' alt='Schandkreuz Wels' style='width:260px;border-radius:8px;margin-top:6px;'>,
Richtberg,Flurnamen,48.18264,13.96309,mündlich überliefert,
Eggerkapelle,Kleindenkmäler,48.183437,13.96823,"Armesünderkapelle vom nahen Richtberg, Funktion nicht belegt.",
Abdeckerhaus in Dopplgraben,Abdecker,48.19539,13.9897,"Abdecker- oder Wasenmeisterhaus, heute Reitstall",https://doris.ooe.gv.at/themen/geschichte/hofnamenreport.aspx?hn_nr=24291
Schedlstraße,Flurnamen,48.15737,13.98806,"oder alte Lambacher Straße, heute Römerstraße",orte/schedlstrasse.html
Fronfeste Wels,Richtstätten,48.15597,14.0253,Johann Hofreiter wird am 9.7.1886 im hinteren Hof der Welser Fronfeste gehängt.Dies war die letzte Hinrichtung in Wels ,
Kreisgericht Wels,Richtstätten,48.156999,14.019104,"Eröffnung im November 1900, k.k. Justizpalast (!)",orte/kreisgerichtwels.html
Galgenhäusel,Galgenhäuser,48.15894,14.00149,Galgenhaus in Wagrain oder Häusl beim Siechhof,
Galgenhaus,Galgenhäuser,48.156069,13.99041,"Galgenhaus, FL, ca. 1965 geschleift. Letzter Besitzer: ""der alte Hutterer""",
Richtstätte,Richtstätten,48.15648,14.02445,in der Welser Pancharte erwähnt,orte/rathauswels.html
Richtstätte und Abdecker,Richtstätten,48.34665,14.420061,"ab 1756 (vorher Gugalea), Wasenmeisterhäusl im untern Gries",https://doris.ooe.gv.at/themen/geschichte/hofnamenreport.aspx?hn_nr=64849
Galgen,Richtstätten,47.96036,14.01686,"auf der freien Heide zu Pettenbach, genauer Standort noch unbekannt",
Galgen,Richtstätten,48.22486,14.48168,"Stadtgericht Enns, 1781 erwähnt",
Scheiben,Flurnamen,48.21958,14.47811," „Scheiben“ könnte auf einen Ort hinweisen, an dem „gerädert“ wurde, also der Ort der „Radscheiben“.",
Galgen,Richtstätten,48.23132,14.875255,Verschiedene historische Quellenangaben bezeugen den Ort dieser Richtstätte östlich von Grein.,https://www.ooegeschichte.at/forschung/kleindenkmal/110637
Galgenkreuz (Richtkreuz),Kleindenkmäler,48.23106,14.874974,Inschrift: ehem. Richtstätte,https://www.ooegeschichte.at/forschung/kleindenkmal/110637
Galgen,Richtstätten,47.90872,13.77741,"hier befand sich bis ca. 1790 das Hochgericht (Gmundner Wochenblatt 6.2.1866, Seite 6)",https://anno.onb.ac.at/cgi-content/anno?aid=gmw&datum=18660206&query=%22Tastelberg%22+%22Galgen%22&ref=anno-search&seite=6
Galgen,Richtstätten,48.24353,14.5116,Die Hochgerichtsbarkeit in Mauthausen wurde 1446 durch ein Privileg Ks. Fridrich III bestätigt. Siehe auch Link Seite 10-11,https://www.yumpu.com/de/document/read/7491578/1294-mb-mauthausen
Galgen,Richtstätten,48.25679,13.06835,JL – Josephinische Landesaufnahme (1775–1777),https://maps.arcanum.com/de/map/europe-18century-firstsurvey/?bbox=1453275.3298581934%2C6148640.496814556%2C1457637.0177847163%2C6150357.941293839&map-list=1&layers=163%2C165
Galgen,Richtstätten,47.86492,13.33855,JL – Josephinische Landesaufnahme (1775–1777),https://maps.arcanum.com/de/map/europe-18century-firstsurvey/?bbox=1483065.5321667448%2C6083069.851001294%2C1487427.2200932677%2C6084787.295480577&map-list=1&layers=163%2C165
Galgen,Richtstätten,47.8458,13.28376,"Überlieferung, dass die Herren von Wartenfels im 15./16. Jh. die Verurteilten hier hinrichten ließen. Weithin sichtbar stand damals in der heutigen Maiberger Wiese der Galgen.",https://www.snooop.net/entdecken/gastberger-wetterkreuz/703098
Galgen,Richtstätten,48.6319,15.05372,Fundament eines dreischläfrigen Galgens erhalten<br><img src='bilder/galgenbergnoe.png' alt='Galgenberg zwischen Jagenbach und Rieggers'style='width:260px;border-radius:8px;margin-top:6px;'>,
Galgen,Richtstätten,48.59837,15.180291,letzte öffentliche Hinrichtung in Zwettl im Jahre 1836,https://zcrux.zwalk.at/galgenkreuz-48-599274-15-180745/
Galgen Kammer-Schörfling,Richtstätten,47.936,13.60357,"letzte Hinrichtung 1837, Landgericht Kammer",https://www.geocaching.com/geocache/GC7JPZM
Abdecker,Abdecker,47.9365,13.60806,Wasenmeisterhaus in der Schönn,https://doris.ooe.gv.at/themen/geschichte/hofnamenreport.aspx?hn_nr=7103
Ansprachgatter Kammer-Schörfling,Kleindenkmäler,47.93403,13.60501,"Vor der Hinrichtung durfte der Delinquent der Bevölkerung eine ""Ansprach"" machen",https://www.geocaching.com/geocache/GC7JPZM
Frauenköpfstelle Salletwald,Richtstätten,48.35177,13.71792,Bis 1779 wurden die Verurteilten auf einem der drei Galgen im Salletwald gehängt und Frauen an der Frauenköpfstelle enthauptet,"https://www.nachrichten.at/oberoesterreich/innviertel/schaerding/Als-Maenner-noch-gehaengt-und-Frauen-gekoepft-wurden;art14856,287582"
Hochgericht Salletwald,Richtstätten,48.35144,13.71979,Bis 1779 wurden die Verurteilten auf einem der drei Galgen im Salletwald gehängt und Frauen an der Frauenköpfstelle enthauptet,"https://www.nachrichten.at/oberoesterreich/innviertel/schaerding/Als-Maenner-noch-gehaengt-und-Frauen-gekoepft-wurden;art14856,287582"
Galgen,Richtstätten,48.062891,13.78611,"fiel im Jahre 1556 vermorscht zusammen, wieder aufgebaut (JL)",https://maps.arcanum.com/de/map/europe-18century-firstsurvey/?bbox=1533437.3824352073%2C6116151.5802559005%2C1537799.0703617302%2C6117869.024735183&map-list=1&layers=163%2C165
Galgen,Richtstätten,47.99939,13.591023,an der Reichsstraße,https://maps.arcanum.com/de/map/europe-18century-firstsurvey/?bbox=1511312.450665069%2C6105658.634222169%2C1515674.138591592%2C6107376.078701452&map-list=1&layers=163%2C165
Galgen,Richtstätten,48.005364,13.55891,an der Reichsstraße,https://maps.arcanum.com/de/map/europe-18century-firstsurvey/?bbox=1507932.5008205827%2C6106222.357305774%2C1512294.1887471057%2C6107939.801785057&map-list=1&layers=163%2C165
Galgen Tollet,Richtstätten,48.24817,13.79384,"In der Nähe befindet sich das Marterl, das an die letzte Hinrichtung 1739 erinnern soll",https://www.ooegeschichte.at/ausstellungen/glaube-aberglaube-gelehrtenmagie/geister-und-gespenster/tolleter-schlossgeist
Wasenmeisterhaus,Abdecker,48.24965,13.79975,Grundherrschaft: Tollet Amt Kastlinged,https://doris.ooe.gv.at/themen/geschichte/hofnamenreport.aspx?hn_nr=16966
Galgen,Richtstätten,47.92104,14.10573,JL – Josephinische Landesaufnahme (1775–1777),https://maps.arcanum.com/de/map/europe-18century-firstsurvey/?bbox=1569229.967734147%2C6092749.2023560135%2C1573591.65566067%2C6094466.646835296&map-list=1&layers=163%2C165
Abdecker,Abdecker,47.92148,14.10318,JL – Josephinische Landesaufnahme (1775–1777),https://maps.arcanum.com/de/map/europe-18century-firstsurvey/?bbox=1569229.967734147%2C6092749.2023560135%2C1573591.65566067%2C6094466.646835296&map-list=1&layers=163%2C165
Marterl,Kleindenkmäler,47.92104,14.104143,Marterl Galgenau,
Schedelberg,Flurnamen,47.93652,14.10349,FL – Franziszeische Landesaufnahme (1809–1818),https://maps.arcanum.com/de/map/secondsurvey-austria/?bbox=1568069.0803670692%2C6095609.6192738805%2C1572430.7682935921%2C6097327.063753163&map-list=1&layers=6
Galgen Vöcklabruck,Richtstätten,48.014391,13.66118,Die Blutgerichtsbarkeit wurde Vöcklabruck 1392 durch Herzog Albrecht III. förmlich verliehen,https://maps.arcanum.com/de/map/europe-18century-firstsurvey/?bbox=1519167.3374074239%2C6107863.70721934%2C1523529.0253339468%2C6109581.151698623&map-list=1&layers=163%2C165
Galgen Rannariedl,Galgenhäuser,48.49091,13.75848,"Hochgericht des Landgerichts Rannariedl, eine Säule gut erhalten.",https://www.lefnaer.com/recht/galgen_Galgen%20Rannariedl.html
Arme-Sünder-Kapelle,Kleindenkmäler,48.49131,13.75994,"Fünf Gehminuten vom Galgen, gut erhalten",https://www.lefnaer.com/recht/galgen_Galgen%20Rannariedl.html
Wasenmeister,Abdecker,48.49216,13.75988,Dienerhaus mit Wasenmeisterei,https://doris.ooe.gv.at/themen/geschichte/hofnamenreport.aspx?hn_nr=52296
Galgen Aigen-Schlägel,Richtstätten,48.64106,13.9796,"nebenbei fließt der Galgenbach, JL",https://maps.arcanum.com/de/map/europe-18century-firstsurvey/?bbox=1552724.4806603584%2C6212506.597134865%2C1561447.8565134043%2C6215941.486093431&map-list=1&layers=163%2C165
Scheibenfeld,Flurnamen,48.64412,13.98623," Der Flurname weist hier ziemlich sicher auf die nahe Richtstätte hin auf der „gerädert“ wurde, „Radscheiben“.",
Galgen Weitersfelden,Richtstätten,48.47133,14.706111,"Landgericht Harrachstal, gut erhalten, 1570 erbaut",https://www.muehlviertel.at/oesterreich-poi/detail/430027418/galgenbuehel.html
Galgen Waldhausen,Richtstätten,48.2709,14.9501,JL – Josephinische Landesaufnahme (1775–1777),https://maps.arcanum.com/de/map/europe-18century-firstsurvey/?bbox=1662068.2409470766%2C6151370.174849183%2C1666429.9288735995%2C6153087.619328466&map-list=1&layers=163%2C165
Galgenberg,Flurnamen,48.27087,14.94194,Quelle?,
Galgenberger,Galgenhäuser,48.2663,14.9509,genaue Lage unbekannt,https://maps.arcanum.com/de/map/europe-18century-firstsurvey/?bbox=1660073.7122402594%2C6149940.563554536%2C1668797.0880933052%2C6153375.4525131015&map-list=1&layers=163%2C165
Galgen,Richtstätten,48.585587,14.55269,"zwischen Windhaag bei Freistadt und Pieberschlag, Galgenberg (JL)",https://maps.arcanum.com/de/map/europe-18century-firstsurvey/?bbox=1619075.4997948513%2C6203773.190582378%2C1623437.1877213742%2C6205490.635061661&map-list=1&layers=163%2C165
Galgenberg,Flurnamen,48.58517,14.55512,"zwischen Windhaag bei Freistadt und Pieberschlag, Galgenberg (JL)",https://maps.arcanum.com/de/map/europe-18century-firstsurvey/?bbox=1619075.4997948513%2C6203773.190582378%2C1623437.1877213742%2C6205490.635061661&map-list=1&layers=163%2C165
Galgen Bad Zell,Richtstätten,48.35424,14.6812,"Markt Zell hatte nicht nur die Niedere Gerichtsbarkeit inne, sondern auch den Blutbann",
Galgenbichl,Flurnamen,48.35283,14.67585,bereits 1391 in einem Regensburger Lehenskodex genannt (FK),
Steininger beim Galgenbichl,Galgenhäuser,48.35419,14.68481,"Der Steiniger musste Leiter und Holz zum Galgen bereitstellen, dafür wird ihm das Grundstück beim Galgen als Viehweide überlassen",https://doris.ooe.gv.at/themen/geschichte/hofnamenreport.aspx?hn_nr=72023
Dreifaltigkeitskapelle beim Galgenbühel,Kleindenkmäler,48.35333,14.677876,Spätbarocke Kapelle aus 1800 mit Wandmalereien und Heiligenfiguren hll. Sebastian und Leonhart(?),https://de.wikipedia.org/wiki/Liste_der_denkmalgesch%C3%BCtzten_Objekte_in_Bad_Zell
Pranger Bad Zell,Pranger,48.34987,14.669471,"Prangersäule am Marktplatz aus dem Jahr 1574. Auf der Säule stehend eine Statue in Ritterrüstung, Schwert und Schild (darauf das Wappen der Jörger von Tollet) – das einzig erhaltene Prangermandl Oberösterreichs.",https://de.wikipedia.org/wiki/Liste_der_denkmalgesch%C3%BCtzten_Objekte_in_Bad_Zell
Pranger Litschau,Pranger,48.94422,15.0458,"gut erhaltener Pranger mit Steinkugel, 1688",orte/litschau.html
Galgenfeld,Flurnamen,48.93561,15.0596,,orte/litschau.html
Galgenfeld,Flurnamen,48.93929,15.06648,,orte/litschau.html
Galgen Litschau,Richtstätten,48.936877,15.06555,Der Galgen von Litschau stand auf dem Galgenbühel bei Loimanns.,orte/litschau.html
Galgenkreuz,Kleindenkmäler,48.94123,15.06792,ein einfaches Steinkreuz aus Granit,orte/litschau.html
Antoniusmarterl,Kleindenkmäler,48.93608,15.06169,letzte Gelegenheit für die Delinquenten zu einem Gebet oder gar die Richtstätte selbst?,orte/litschau.html
Galgenfeld,Flurnamen,48.93273,15.078816,,
Wasenmeister,Abdecker,48.93733,15.091013,,
