name	kategorie	lat	lng	beschreibung	link
Abdecker hinterm Hundskogel	Abdecker	47.69998	13.614274		
Abdeckerhaus im Sand	Abdecker	47.72141	14.316303	Wasenmeister am Sand n‰chst Windischgarsten	https://doris.ooe.gv.at/themen/geschichte/hofnamenreport.aspx?hn_nr=94638
Schwertnerh‰usl	Indizort	47.72163267	14.32218588	Ort mit topographischen oder toponymischen Hinweisen auf eine Richtst‰tte im n‰heren Umfeld, jedoch ohne urkundlichen Nachweis.	
Rabenstein	Indizort	47.779074	14.000992	Ort mit topographischen oder toponymischen Hinweisen auf eine Richtst‰tte im n‰heren Umfeld, jedoch ohne urkundlichen Nachweis.	
Walnerh‰usl am Rathpichl	Indizort	47.80334767	13.48272862	Ort mit topographischen oder toponymischen Hinweisen auf eine Richtst‰tte im n‰heren Umfeld, jedoch ohne urkundlichen Nachweis.	
Schedlbauer	Indizort	47.84115825	14.15992149	Ort mit topographischen oder toponymischen Hinweisen auf eine Richtst‰tte im n‰heren Umfeld, jedoch ohne urkundlichen Nachweis.	
Galgen	Richtst‰tten	47.8458	13.28376	Ðberlieferung, dass die Herren von Wartenfels im 15./16. Jh. die Verurteilten hier hinrichten lieþen. Weithin sichtbar stand damals in der heutigen Maiberger Wiese der Galgen.	https://www.snooop.net/entdecken/gastberger-wetterkreuz/703098
Richtst‰tte Mondsee	Richtst‰tten	47.855808	13.35	Am 18. 12. 1662 wurde am Marktplatz Mondsee die Richtst‰tte errichtet. 11 Bauern wurden verurteilt ñ 2 wurden gekˆpft (Handlbauer und ein weiterer Bauer der Region)	https://www.salzkammergut.at/oesterreich-poi/detail/430022048/arme-seelen-taferl.html
Scheiblehner	Indizort	47.85757369	14.53731319	Ort mit topographischen oder toponymischen Hinweisen auf eine Richtst‰tte im n‰heren Umfeld, jedoch ohne urkundlichen Nachweis.	
Galgen	Richtst‰tten	47.86492	13.33855	JLÝñ Josephinische Landesaufnahme (1775ñ1777)	https://maps.arcanum.com/de/map/europe-18century-firstsurvey/?bbox=1483065.5321667448%2C6083069.851001294%2C1487427.2200932677%2C6084787.295480577&map-list=1&layers=163%2C165
Rothenstein	Indizort	47.86630772	14.55628761	Ort mit topographischen oder toponymischen Hinweisen auf eine Richtst‰tte im n‰heren Umfeld, jedoch ohne urkundlichen Nachweis.	
in der Rothwiesen	Indizort	47.8684326	13.3510858	Ort mit topographischen oder toponymischen Hinweisen auf eine Richtst‰tte im n‰heren Umfeld, jedoch ohne urkundlichen Nachweis.	
Arme-Seelen-Taferl	Kleindenkm‰ler	47.872124	13.33267	Erinnert an die Hinrichtung des damaligen Eigent¸mers des Handlbauerngutes, er wurde am 18. 12. 1662 am Marktplatz in Mondsee gekˆpft	https://www.ortedesglaubens.at/mondsee/orte-des-glaubens/oesterreich-poi/detail/430022048/arme-seelen-taferl.html
Kronsteiner	Indizort	47.878619	14.552277	Kranstein JL	https://maps.arcanum.com/de/map/europe-18century-firstsurvey/?bbox=1618513.3239363043%2C6085738.3515988765%2C1622955.0318768134%2C6087050.918693961&map-list=1&layers=163%2C165
Nachrichtergut	Indizort	47.882473	13.5231099	Ort mit topographischen oder toponymischen Hinweisen auf eine Richtst‰tte im n‰heren Umfeld, jedoch ohne urkundlichen Nachweis.	
Abdecker Tissenbach	Abdecker	47.89025	13.968481		
Wasenmeister Molln	Abdecker	47.89362	14.28244	Wasenmeisterh‰usel in Rabach	https://doris.ooe.gv.at/themen/geschichte/hofnamenreport.aspx?hn_nr=93495
Schinderviertel	Flurnamen	47.89373	14.28148		
Richtberg	Indizort	47.8949181	13.6942512	Ort mit topographischen oder toponymischen Hinweisen auf eine Richtst‰tte im n‰heren Umfeld, jedoch ohne urkundlichen Nachweis.	
Haus am Rohr in der Urtl	Indizort	47.89619615	13.76643273	Ort mit topographischen oder toponymischen Hinweisen auf eine Richtst‰tte im n‰heren Umfeld, jedoch ohne urkundlichen Nachweis.	
Kronberg	Indizort	47.900483	13.487536	Ort mit topographischen oder toponymischen Hinweisen auf eine Richtst‰tte im n‰heren Umfeld, jedoch ohne urkundlichen Nachweis.	https://maps.arcanum.com/de/map/europe-18century-firstsurvey/?bbox=1499033.4037206925%2C6088570.598992148%2C1507916.8196017102%2C6091195.733182317&map-list=1&layers=163%2C165
Schinder	Indizort	47.90557508	14.30617037	Ort mit topographischen oder toponymischen Hinweisen auf eine Richtst‰tte im n‰heren Umfeld, jedoch ohne urkundlichen Nachweis.	
Gallenleiten	Flurnamen	47.90632	13.47173		
Kronstein	Indizort	47.907491	14.455918	900m s¸dlich des Hochgerichtsbergs	
Richtberg	Richtst‰tten	47.89108	13.65533	Der Legende nach sollen hier fr¸her Hinrichtungen stattgefunden haben (ISBN-3-85214-086-2)	
Kronkogler	Indizort	47.911455	14.621073	Ort mit topographischen oder toponymischen Hinweisen auf eine Richtst‰tte im n‰heren Umfeld, jedoch ohne urkundlichen Nachweis.	
Kranapichl / Hacklberg	Indizort	47.91156	13.948296	vielleicht ein Hinweis auf das Hochgericht Scharnstein JL	https://maps.arcanum.com/de/map/europe-18century-firstsurvey/?bbox=1549256.6122486896%2C6090250.325137052%2C1558140.0281297073%2C6092875.45932722&map-list=1&layers=163%2C165
Galgen	Richtst‰tten	47.90872	13.77741	hier befand sich bis ca. 1790 das Hochgericht (Gmundner Wochenblatt 6.2.1866, Seite 6)	https://anno.onb.ac.at/cgi-content/anno?aid=gmw&datum=18660206&query=%22Tastelberg%22+%22Galgen%22&ref=anno-search&seite=6
Hochgericht Scharnstein	Richtst‰tten	47.91544	13.963755	Herrschaft Scharnstein, auf der freien Heide in Viechtwang innerhalb M¸hldorf	
Hackersch‰dl	Flurnamen	47.917275	14.454013	am Hochgerichtsberg gelegen	
Radwiesensˆlde	Indizort	47.919889	13.9099367	Ort mit topographischen oder toponymischen Hinweisen auf eine Richtst‰tte im n‰heren Umfeld, jedoch ohne urkundlichen Nachweis.	
Hochgerichtsberg	Richtst‰tten	47.91544	14.45414	auch Gerichtskogel oder Hackersch‰dl beim Hangenden Stein genannt, Herrschaft Losenstein	https://www.burglosenstein.at/index.php/herrschaft-losenstein.html
Marterl	Kleindenkm‰ler	47.92104	14.104143	Marterl Galgenau	
Galgen	Richtst‰tten	47.92104	14.10573	JLÝñ Josephinische Landesaufnahme (1775ñ1777)	https://maps.arcanum.com/de/map/europe-18century-firstsurvey/?bbox=1569229.967734147%2C6092749.2023560135%2C1573591.65566067%2C6094466.646835296&map-list=1&layers=163%2C165
Abdecker	Abdecker	47.92148	14.10318	JLÝñ Josephinische Landesaufnahme (1775ñ1777)	https://maps.arcanum.com/de/map/europe-18century-firstsurvey/?bbox=1569229.967734147%2C6092749.2023560135%2C1573591.65566067%2C6094466.646835296&map-list=1&layers=163%2C165
Scherghueb	Indizort	47.92166254	13.81718594	Ort mit topographischen oder toponymischen Hinweisen auf eine Richtst‰tte im n‰heren Umfeld, jedoch ohne urkundlichen Nachweis.	
Galgen Tastelberg	Richtst‰tten	47.921328	13.81532	am Stich von Merian 1649 ganz rechts in der Bildmitte der dreischl‰frige Galgen	https://de.wikipedia.org/wiki/Wunderburg_(Gmunden)#/media/Datei:Gmunden_Traunsee-neu.jpg
Gut am Rehkogel	Indizort	47.9262873	13.9220803	Ort mit topographischen oder toponymischen Hinweisen auf eine Richtst‰tte im n‰heren Umfeld, jedoch ohne urkundlichen Nachweis.	
Schˆrkenm¸hle	Indizort	47.9268763	14.6140135	Ort mit topographischen oder toponymischen Hinweisen auf eine Richtst‰tte im n‰heren Umfeld, jedoch ohne urkundlichen Nachweis.	
Rabersberg	Indizort	47.928738	13.84712	Ort mit topographischen oder toponymischen Hinweisen auf eine Richtst‰tte im n‰heren Umfeld, jedoch ohne urkundlichen Nachweis.	
Kronberg	Indizort	47.932939	13.725045	Ort mit topographischen oder toponymischen Hinweisen auf eine Richtst‰tte im n‰heren Umfeld, jedoch ohne urkundlichen Nachweis.	
Ansprachgatter Kammer-Schˆrfling	Kleindenkm‰ler	47.93403	13.60501	"Vor der Hinrichtung durfte der Delinquent der Bevˆlkerung eine ""Ansprach"" machen"	https://www.geocaching.com/geocache/GC7JPZM
Schimplgupf	Indizort	47.93467073	13.69742372	Ort mit topographischen oder toponymischen Hinweisen auf eine Richtst‰tte im n‰heren Umfeld, jedoch ohne urkundlichen Nachweis.	
Schedlgut	Indizort	47.93467805	14.16557011	Ort mit topographischen oder toponymischen Hinweisen auf eine Richtst‰tte im n‰heren Umfeld, jedoch ohne urkundlichen Nachweis.	
Wasenmeister St. Georgen	Abdecker	47.935452	13.45886	Wasenmeisterh‰usl	https://doris.ooe.gv.at/themen/geschichte/hofnamenreport.aspx?hn_nr=2436
Hochgericht Gmunden	Richtst‰tten	47.92537	13.79709	1465 erhielt Gmunden das bis dahin zum Landgericht Ort gehˆrige hohe Stadtgericht. Auch auf dem Stich von Merian (1656) gut zu sehen.	https://www.arcanum.com/hu/online-kiadvanyok/OsterreichischerStadtatlas-osterreichischer-stadteatlas-1/gmunden-1104/wachstumsphasenkarte-mit-legende-11F3/
Ramesberg	Indizort	47.936272	14.363192	Ort mit topographischen oder toponymischen Hinweisen auf eine Richtst‰tte im n‰heren Umfeld, jedoch ohne urkundlichen Nachweis.	
Abdecker	Abdecker	47.9365	13.60806	Wasenmeisterhaus in der Schˆnn	https://doris.ooe.gv.at/themen/geschichte/hofnamenreport.aspx?hn_nr=7103
Schedelberg	Flurnamen	47.93652	14.10349	FL ñ Franziszeische Landesaufnahme (1809ñ1818)	https://maps.arcanum.com/de/map/secondsurvey-austria/?bbox=1568069.0803670692%2C6095609.6192738805%2C1572430.7682935921%2C6097327.063753163&map-list=1&layers=6
Sch‰delberg	Flurnamen	47.93835706	14.3664077	Ort mit topographischen oder toponymischen Hinweisen auf eine Richtst‰tte im n‰heren Umfeld, jedoch ohne urkundlichen Nachweis.	
Schimplgut	Indizort	47.94334093	13.71744917	Ort mit topographischen oder toponymischen Hinweisen auf eine Richtst‰tte im n‰heren Umfeld, jedoch ohne urkundlichen Nachweis.	
Oberschedlkogl	Indizort	47.9440053	14.1459666	Ort mit topographischen oder toponymischen Hinweisen auf eine Richtst‰tte im n‰heren Umfeld, jedoch ohne urkundlichen Nachweis.	
Unterschedlkogelgut	Indizort	47.94443284	14.14565485	Ort mit topographischen oder toponymischen Hinweisen auf eine Richtst‰tte im n‰heren Umfeld, jedoch ohne urkundlichen Nachweis.	
Schedlsˆlden	Galgenhaus	47.94802526	14.1230675		
Rˆth	Indizort	47.94821463	13.43246093	Ort mit topographischen oder toponymischen Hinweisen auf eine Richtst‰tte im n‰heren Umfeld, jedoch ohne urkundlichen Nachweis.	
Schimpel	Indizort	47.9491917	13.8230554	Ort mit topographischen oder toponymischen Hinweisen auf eine Richtst‰tte im n‰heren Umfeld, jedoch ohne urkundlichen Nachweis.	
Schwerdbergergut	Galgenhaus	47.959901	13.696995	Schwerdbergergut in der Au	https://doris.ooe.gv.at/themen/geschichte/hofnamenreport.aspx?hn_nr=11270
Galgen Kammer-Schˆrfling	Richtst‰tten	47.936	13.60357	letzte Hinrichtung 1837, Landgericht Kammer	https://www.geocaching.com/geocache/GC7JPZM
Todtau	Indizort	47.96193072	14.12735291	Ort mit topographischen oder toponymischen Hinweisen auf eine Richtst‰tte im n‰heren Umfeld, jedoch ohne urkundlichen Nachweis.	
Rabensteinerm¸hle	Indizort	47.963006	13.744294	Ort mit topographischen oder toponymischen Hinweisen auf eine Richtst‰tte im n‰heren Umfeld, jedoch ohne urkundlichen Nachweis.	
Schimplgangl	Indizort	47.96303075	13.72270137	Ort mit topographischen oder toponymischen Hinweisen auf eine Richtst‰tte im n‰heren Umfeld, jedoch ohne urkundlichen Nachweis.	
Schedelhaus	Indizort	47.96431962	14.25584407	Ort mit topographischen oder toponymischen Hinweisen auf eine Richtst‰tte im n‰heren Umfeld, jedoch ohne urkundlichen Nachweis.	
Schusterg¸tl in Rad	Indizort	47.9668033	13.97886729	Ort mit topographischen oder toponymischen Hinweisen auf eine Richtst‰tte im n‰heren Umfeld, jedoch ohne urkundlichen Nachweis.	
Rˆthbauer	Indizort	47.96756026	13.37327716	Ort mit topographischen oder toponymischen Hinweisen auf eine Richtst‰tte im n‰heren Umfeld, jedoch ohne urkundlichen Nachweis.	
Abdecker Lederau	Abdecker	47.968946	13.97371	Abdeckerneuh‰usl	https://doris.ooe.gv.at/themen/geschichte/hofnamenreport.aspx?hn_nr=84478
Gallngut	Galgenhaus	47.969274	13.664049	Gallngut in der Stiglgrub	https://doris.ooe.gv.at/themen/geschichte/hofnamenreport.aspx?hn_nr=9808
Schedlhaus	Indizort	47.96945992	14.26158464	Ort mit topographischen oder toponymischen Hinweisen auf eine Richtst‰tte im n‰heren Umfeld, jedoch ohne urkundlichen Nachweis.	
Schedlwirtshaus	Indizort	47.9697483	14.2658452	Ort mit topographischen oder toponymischen Hinweisen auf eine Richtst‰tte im n‰heren Umfeld, jedoch ohne urkundlichen Nachweis.	
Sch‰dlbach	Flurnamen	47.97333003	14.31044132	Ort mit topographischen oder toponymischen Hinweisen auf eine Richtst‰tte im n‰heren Umfeld, jedoch ohne urkundlichen Nachweis.	
Schedlbachm¸hle	Indizort	47.97341384	14.31170931	Ort mit topographischen oder toponymischen Hinweisen auf eine Richtst‰tte im n‰heren Umfeld, jedoch ohne urkundlichen Nachweis.	
Schedlberger	Indizort	47.97380595	14.30220384	Ort mit topographischen oder toponymischen Hinweisen auf eine Richtst‰tte im n‰heren Umfeld, jedoch ohne urkundlichen Nachweis.	
Schedlleiten	Indizort	47.9743223	14.3034325	Ort mit topographischen oder toponymischen Hinweisen auf eine Richtst‰tte im n‰heren Umfeld, jedoch ohne urkundlichen Nachweis.	
Schwertberg	Flurnamen	47.97455	13.670876	Schwerdtbergergut	https://doris.ooe.gv.at/themen/geschichte/hofnamenreport.aspx?hn_nr=10136
Wasenmeister Ðberl‰nd	Abdecker	47.97761	14.245428	Stauffmayrgut oder Wasenmeister Ðberl‰nd	https://doris.ooe.gv.at/themen/geschichte/hofnamenreport.aspx?hn_nr=91998
Gallnbrunn	Flurnamen	47.97892	13.51863	Gallabrunn	
Wasenhaus	Abdecker	47.98082	14.242117		https://doris.ooe.gv.at/themen/geschichte/hofnamenreport.aspx?hn_nr=91910
Schedlgut	Indizort	47.9850958	14.33299931	Ort mit topographischen oder toponymischen Hinweisen auf eine Richtst‰tte im n‰heren Umfeld, jedoch ohne urkundlichen Nachweis.	
Galgen	Richtst‰tten	47.96036	14.01686	auf der freien Heide zu Pettenbach, genauer Standort noch unbekannt	
Gallaberg	Flurnamen	47.9893	13.60661	Galgenberg (Gallaberg) scheint erstmals in einer Urkunde auf	https://www.lenzing.ooe.gv.at/Leben_in_Lenzing/Gemeinde_Info/Gemeinde/Chronologie?utm_source=chatgpt.com
Raabner	Indizort	47.989922	14.183612	Ort mit topographischen oder toponymischen Hinweisen auf eine Richtst‰tte im n‰heren Umfeld, jedoch ohne urkundlichen Nachweis.	
Gallnbergerg¸tl	Galgenhaus	47.99014	13.61568		
Kranaweter	Indizort	47.990629	14.298946	Ort mit topographischen oder toponymischen Hinweisen auf eine Richtst‰tte im n‰heren Umfeld, jedoch ohne urkundlichen Nachweis.	
Rabenmoosm¸hle	Indizort	47.990815	13.339238	Ort mit topographischen oder toponymischen Hinweisen auf eine Richtst‰tte im n‰heren Umfeld, jedoch ohne urkundlichen Nachweis.	
Raaberg	Indizort	47.993236	13.338588	Ort mit topographischen oder toponymischen Hinweisen auf eine Richtst‰tte im n‰heren Umfeld, jedoch ohne urkundlichen Nachweis.	
Urtlpointhaus	Indizort	47.99408039	13.53582201	Ort mit topographischen oder toponymischen Hinweisen auf eine Richtst‰tte im n‰heren Umfeld, jedoch ohne urkundlichen Nachweis.	
Schedlhof	Indizort	47.9949543	14.29184689	Ort mit topographischen oder toponymischen Hinweisen auf eine Richtst‰tte im n‰heren Umfeld, jedoch ohne urkundlichen Nachweis.	
Schedlberg	Indizort	47.99562006	14.27219799	Ort mit topographischen oder toponymischen Hinweisen auf eine Richtst‰tte im n‰heren Umfeld, jedoch ohne urkundlichen Nachweis.	
Abdeckerhaus	Abdecker	47.99573	13.45614	Haringhaus	https://doris.ooe.gv.at/themen/geschichte/hofnamenreport.aspx?hn_nr=2345
Gericht	Richtst‰tten	47.985102	13.45963	JLÝñ Josephinische Landesaufnahme (1775ñ1777)	https://maps.arcanum.com/de/map/europe-18century-firstsurvey/?bbox=1496753.621222727%2C6102807.888368215%2C1501115.30914925%2C6104525.332847498&map-list=1&layers=163%2C165
Abdecker	Abdecker	47.99746	13.73594		
Tˆdtenwaitz	Indizort	47.9990468	13.93577488	Ort mit topographischen oder toponymischen Hinweisen auf eine Richtst‰tte im n‰heren Umfeld, jedoch ohne urkundlichen Nachweis.	
Galgen	Richtst‰tten	47.99734	12.87866	JLÝñ Josephinische Landesaufnahme (1775ñ1777)	https://maps.arcanum.com/de/map/europe-18century-firstsurvey/?bbox=1431399.2728880893%2C6104952.124164952%2C1435760.9608146122%2C6106669.568644235&map-list=1&layers=163%2C165
Wasenmeister	Abdecker	47.999714	13.21632	Wasenstatt am Mitterberg	https://doris.ooe.gv.at/themen/geschichte/hofnamenreport.aspx?hn_nr=37938
Abdecker Puchheim	Abdecker	48.00058	13.701848	Wasenmeisterhaus im Mitterthal	https://doris.ooe.gv.at/themen/geschichte/hofnamenreport.aspx?hn_nr=11512
Galgen	Richtst‰tten	47.99939	13.591023	an der Reichsstraþe	https://maps.arcanum.com/de/map/europe-18century-firstsurvey/?bbox=1511312.450665069%2C6105658.634222169%2C1515674.138591592%2C6107376.078701452&map-list=1&layers=163%2C165
Schedlberg	Indizort	48.00549114	14.18286715	Ort mit topographischen oder toponymischen Hinweisen auf eine Richtst‰tte im n‰heren Umfeld, jedoch ohne urkundlichen Nachweis.	
Galgen	Richtst‰tten	48.005364	13.55891	an der Reichsstraþe	https://maps.arcanum.com/de/map/europe-18century-firstsurvey/?bbox=1507932.5008205827%2C6106222.357305774%2C1512294.1887471057%2C6107939.801785057&map-list=1&layers=163%2C165
Kˆpfst‰tte Lengau	Richtst‰tten	48.006947	13.24406	Kˆpfstadl, Kˆpfstadlpoint , FL, FK	https://maps.arcanum.com/de/map/europe-19century-secondsurvey/?bbox=1472103.3885291223%2C6107148.35548297%2C1476465.0764556453%2C6108865.799962253&map-list=1&layers=158%2C164
Scheibenfeld	Indizort	48.00941536	13.92387085	Ort mit topographischen oder toponymischen Hinweisen auf eine Richtst‰tte im n‰heren Umfeld, jedoch ohne urkundlichen Nachweis.	
Schedlgut	Indizort	48.01100741	13.44470734	Ort mit topographischen oder toponymischen Hinweisen auf eine Richtst‰tte im n‰heren Umfeld, jedoch ohne urkundlichen Nachweis.	
Schedelgut	Indizort	48.01118572	14.29856536	Ort mit topographischen oder toponymischen Hinweisen auf eine Richtst‰tte im n‰heren Umfeld, jedoch ohne urkundlichen Nachweis.	
Schedlhof	Indizort	48.0111933	14.2978634	Ort mit topographischen oder toponymischen Hinweisen auf eine Richtst‰tte im n‰heren Umfeld, jedoch ohne urkundlichen Nachweis.	
Rabensteinergut	Indizort	48.011882	13.753217	Ort mit topographischen oder toponymischen Hinweisen auf eine Richtst‰tte im n‰heren Umfeld, jedoch ohne urkundlichen Nachweis.	
Rathgut	Indizort	48.0130127	14.32892689	Ort mit topographischen oder toponymischen Hinweisen auf eine Richtst‰tte im n‰heren Umfeld, jedoch ohne urkundlichen Nachweis.	
Kopfst‰tts‰ule Ast‰tt	Richtst‰tten	48.008448	13.158557	letzte erhaltene Kˆpfstatts‰ule ÷sterreichs, letzte Hinrichtung 1762	http://www.gaudeamus-tanz.at/koepfstaette-in-astaett/
Gerichtsberg-Kapelle	Kleindenkm‰ler	48.01698466	13.66274893	zwischen 1850 - 1885 errichtet, in der N‰he des Gerichtsplatzes, sonst kein direkter Zusammenhang	https://www.ooegeschichte.at/forschung/kleindenkmal/282915
Galgen Vˆcklabruck	Richtst‰tten	48.014391	13.66118	Die Blutgerichtsbarkeit wurde Vˆcklabruck 1392 durch Herzog Albrecht III. fˆrmlich verliehen, JL	https://maps.arcanum.com/de/map/europe-18century-firstsurvey/?bbox=1519167.3374074239%2C6107863.70721934%2C1523529.0253339468%2C6109581.151698623&map-list=1&layers=163%2C165
Galgenweide	Flurnamen	48.017768	14.23942	nicht weit von der Blasiuskirche stand der Galgen des Landesgerichts Hall.	https://www.meinbezirk.at/steyr-steyr-land/c-lokales/rote-kreuze-der-geschichte-auf-den-grund-gehen_a1946659
Rothaider	Indizort	48.01858057	14.15611503	Ort mit topographischen oder toponymischen Hinweisen auf eine Richtst‰tte im n‰heren Umfeld, jedoch ohne urkundlichen Nachweis.	
Abdecker Saaþ	Abdecker	48.018932	14.35164		
Galgenhˆlzl	Richtst‰tten	48.01764	13.21866	Galgenhˆlzl FK, FL	https://maps.arcanum.com/de/map/secondsurvey-austria/?bbox=1469685.8592243171%2C6108812.770812798%2C1474047.54715084%2C6110530.215292081&map-list=1&layers=6
Abdecker Timelkam	Abdecker	48.02177	13.60007	Hofwaid, Abdeckerhaus	https://doris.ooe.gv.at/themen/geschichte/hofnamenreport.aspx?hn_nr=6657
Raad	Indizort	48.02301315	14.08409884	Ort mit topographischen oder toponymischen Hinweisen auf eine Richtst‰tte im n‰heren Umfeld, jedoch ohne urkundlichen Nachweis.	
Hochgericht Steyr	Richtst‰tten	48.01963	14.418501	Hochgerichtsst‰tte der Herrschaft Burg Steyr 	
Schedlleitnerh‰usl	Indizort	48.02959951	14.33518177	Ort mit topographischen oder toponymischen Hinweisen auf eine Richtst‰tte im n‰heren Umfeld, jedoch ohne urkundlichen Nachweis.	
Scheibelgut	Indizort	48.03304146	13.43447092	Ort mit topographischen oder toponymischen Hinweisen auf eine Richtst‰tte im n‰heren Umfeld, jedoch ohne urkundlichen Nachweis.	
Rˆth	Indizort	48.0331275	13.43707803	Ort mit topographischen oder toponymischen Hinweisen auf eine Richtst‰tte im n‰heren Umfeld, jedoch ohne urkundlichen Nachweis.	
Richtgrub	Indizort	48.03455491	14.02467884	Ort mit topographischen oder toponymischen Hinweisen auf eine Richtst‰tte im n‰heren Umfeld, jedoch ohne urkundlichen Nachweis.	
Schedlbergerhaus	Indizort	48.03475408	14.20859226	Ort mit topographischen oder toponymischen Hinweisen auf eine Richtst‰tte im n‰heren Umfeld, jedoch ohne urkundlichen Nachweis.	
Abdecker Obereinwald	Abdecker	48.0384	13.63739	Abdeckerbehausung	https://doris.ooe.gv.at/themen/geschichte/hofnamenreport.aspx?hn_nr=8467
Kronberg	Indizort	48.038747	13.627173	am Raberg / Gronberg / Kronberg JL	https://maps.arcanum.com/de/map/europe-18century-firstsurvey/?bbox=1515454.8228764203%2C6112818.483392886%2C1519896.5308169294%2C6114131.05048797&map-list=1&layers=163%2C165
Wolfengut	Indizort	48.03936342	13.62717809	Ort mit topographischen oder toponymischen Hinweisen auf eine Richtst‰tte im n‰heren Umfeld, jedoch ohne urkundlichen Nachweis.	
Schedelbergerstraþergut	Indizort	48.03955	14.115568	Schedlberg ñ der Name kˆnnte auf eine ehemalige Richtst‰tte hinweisen (vgl. Sch‰delstraþe in Wels)	https://doris.ooe.gv.at/themen/geschichte/hofnamenreport.aspx?hn_nr=87644
Schedlberg	Indizort	48.04052	14.11265	Schedlberg ñ der Name kˆnnte auf eine ehemalige Richtst‰tte hinweisen	https://doris.ooe.gv.at/themen/geschichte/hofnamenreport.aspx?hn_nr=87587
am Raberg	Indizort	48.041829	13.629163	Ort mit topographischen oder toponymischen Hinweisen auf eine Richtst‰tte im n‰heren Umfeld, jedoch ohne urkundlichen Nachweis.	https://maps.arcanum.com/de/map/europe-18century-firstsurvey/?bbox=1513155.9767248235%2C6112146.287833625%2C1522039.3926058412%2C6114771.422023794&map-list=1&layers=163%2C165
Schedlhof	Indizort	48.04280102	13.90692649	Ort mit topographischen oder toponymischen Hinweisen auf eine Richtst‰tte im n‰heren Umfeld, jedoch ohne urkundlichen Nachweis.	
Wolfganggut	Indizort	48.04282712	13.63435741	Ort mit topographischen oder toponymischen Hinweisen auf eine Richtst‰tte im n‰heren Umfeld, jedoch ohne urkundlichen Nachweis.	
Abdecker Einwald	Abdecker	48.04303	13.636537	Abdeckerh‰usl	https://doris.ooe.gv.at/themen/geschichte/hofnamenreport.aspx?hn_nr=8428
Strassergut bei Schedlberg	Indizort	48.04422	14.121718	Schedlberg ñ der Name kˆnnte auf eine ehemalige Richtst‰tte hinweisen	https://doris.ooe.gv.at/themen/geschichte/hofnamenreport.aspx?hn_nr=87845
Schˆrgngut	Indizort	48.04471461	14.08277018	Ort mit topographischen oder toponymischen Hinweisen auf eine Richtst‰tte im n‰heren Umfeld, jedoch ohne urkundlichen Nachweis.	
Galgen Babenham	Richtst‰tten	48.026027	13.14839	JLÝñ Josephinische Landesaufnahme (1775ñ1777)	https://maps.arcanum.com/de/map/europe-18century-firstsurvey/?bbox=1462115.545017727%2C6110076.827692495%2C1466477.2329442499%2C6111794.272171778&map-list=1&layers=163%2C165
Rad	Indizort	48.04686851	13.89198922	Ort mit topographischen oder toponymischen Hinweisen auf eine Richtst‰tte im n‰heren Umfeld, jedoch ohne urkundlichen Nachweis.	
Abdecker Ungenach	Abdecker	48.04693	13.639391	Abdeckerh‰usl, Haus in der Kuglstatt	https://doris.ooe.gv.at/themen/geschichte/hofnamenreport.aspx?hn_nr=8586
Schedlhub	Indizort	48.04968231	13.1477393	Ort mit topographischen oder toponymischen Hinweisen auf eine Richtst‰tte im n‰heren Umfeld, jedoch ohne urkundlichen Nachweis.	
Rametsberg	Indizort	48.05043	13.652327	Ort mit topographischen oder toponymischen Hinweisen auf eine Richtst‰tte im n‰heren Umfeld, jedoch ohne urkundlichen Nachweis.	
Rabenwinkl	Indizort	48.051512	14.042704	Ort mit topographischen oder toponymischen Hinweisen auf eine Richtst‰tte im n‰heren Umfeld, jedoch ohne urkundlichen Nachweis.	
In der Scheiben	Flurnamen	48.05164	14.148062	 Der Flurname kˆnnte auf eine Richtst‰tte hinweisen auf der Ñger‰dertì wurde, ÑRadscheibenì.	
Unterrath	Indizort	48.05399148	13.89652913	Ort mit topographischen oder toponymischen Hinweisen auf eine Richtst‰tte im n‰heren Umfeld, jedoch ohne urkundlichen Nachweis.	
Abdecker	Abdecker	48.05549	13.91005	Abdeckerhaus in der Au	https://doris.ooe.gv.at/themen/geschichte/hofnamenreport.aspx?hn_nr=82855
Wolfsh¸tte	Indizort	48.05626424	13.68349567	Ort mit topographischen oder toponymischen Hinweisen auf eine Richtst‰tte im n‰heren Umfeld, jedoch ohne urkundlichen Nachweis.	
Wolfing	Indizort	48.05728203	12.86508039	Ort mit topographischen oder toponymischen Hinweisen auf eine Richtst‰tte im n‰heren Umfeld, jedoch ohne urkundlichen Nachweis.	
Hochgericht Steyr 2	Richtst‰tten	48.04507	14.38966	JLÝñ Josephinische Landesaufnahme (1775ñ1777)	https://maps.arcanum.com/de/map/europe-18century-firstsurvey/?bbox=1600494.7524274494%2C6113062.675048532%2C1604856.4403539724%2C6114780.119527815&map-list=1&layers=163%2C165
Rabensteinergut	Indizort	48.057427	13.790717	Ort mit topographischen oder toponymischen Hinweisen auf eine Richtst‰tte im n‰heren Umfeld, jedoch ohne urkundlichen Nachweis.	
Bildstock am Galgenberg	Kleindenkm‰ler	48.05893309	13.90586479	ein aus zwei S‰ulenteilen zusammengesetzter Bildstock	https://www.ooegeschichte.at/forschung/kleindenkmal/111373
Schedlbergersˆlden	Indizort	48.06229	14.13871	Schedlbergersˆlden zu Grub	https://doris.ooe.gv.at/themen/geschichte/hofnamenreport.aspx?hn_nr=88811
Galgenberg Wimsbach	Richtst‰tten	48.05734	13.905665	dasÝLandgericht Wimsbach hatte dieÝBlutgerichtsbarkeitÝinne, wovon der Galgenberg Zeugnis ablegt.	https://www.ooegeschichte.at/forschung/kleindenkmal/111373
Rabensteinerg¸tl	Indizort	48.06404	13.77375	Ort mit topographischen oder toponymischen Hinweisen auf eine Richtst‰tte im n‰heren Umfeld, jedoch ohne urkundlichen Nachweis.	
Wasenmeister Fugging	Abdecker	48.065802	12.874323	Wasenstatth‰usl, FK	https://doris.ooe.gv.at/themen/geschichte/hofnamenreport.aspx?hn_nr=31384
Abdecker Ibm	Abdecker	48.067061	12.95811		
Wasenmeister Pitzenberg	Abdecker	48.06728	13.7341	Wasenmeisterhaus	https://doris.ooe.gv.at/themen/geschichte/hofnamenreport.aspx?hn_nr=13353
Urtlpoint	Indizort	48.06764451	13.55742709	Ort mit topographischen oder toponymischen Hinweisen auf eine Richtst‰tte im n‰heren Umfeld, jedoch ohne urkundlichen Nachweis.	
Tˆttenthallergut	Indizort	48.06787368	13.8896201	Ort mit topographischen oder toponymischen Hinweisen auf eine Richtst‰tte im n‰heren Umfeld, jedoch ohne urkundlichen Nachweis.	
Scheibenpoint	Indizort	48.06904382	12.85365596	Ort mit topographischen oder toponymischen Hinweisen auf eine Richtst‰tte im n‰heren Umfeld, jedoch ohne urkundlichen Nachweis.	
Scheiblwies	Indizort	48.06940261	13.56779724	Ort mit topographischen oder toponymischen Hinweisen auf eine Richtst‰tte im n‰heren Umfeld, jedoch ohne urkundlichen Nachweis.	
Rad	Indizort	48.07110878	14.37687609	Ort mit topographischen oder toponymischen Hinweisen auf eine Richtst‰tte im n‰heren Umfeld, jedoch ohne urkundlichen Nachweis.	
im Rad	Indizort	48.07186608	14.33336565	Ort mit topographischen oder toponymischen Hinweisen auf eine Richtst‰tte im n‰heren Umfeld, jedoch ohne urkundlichen Nachweis.	
Schedlgut	Indizort	48.07196519	14.45075127	Ort mit topographischen oder toponymischen Hinweisen auf eine Richtst‰tte im n‰heren Umfeld, jedoch ohne urkundlichen Nachweis.	
Rathfeld	Indizort	48.07209398	14.366847	Ort mit topographischen oder toponymischen Hinweisen auf eine Richtst‰tte im n‰heren Umfeld, jedoch ohne urkundlichen Nachweis.	
Schˆrgen	Indizort	48.07231992	13.49324728	Ort mit topographischen oder toponymischen Hinweisen auf eine Richtst‰tte im n‰heren Umfeld, jedoch ohne urkundlichen Nachweis.	
Rathnerg¸tel	Indizort	48.0745313	14.3580503	Ort mit topographischen oder toponymischen Hinweisen auf eine Richtst‰tte im n‰heren Umfeld, jedoch ohne urkundlichen Nachweis.	
Thˆttenthallersˆlde	Indizort	48.07686554	13.91835357	Ort mit topographischen oder toponymischen Hinweisen auf eine Richtst‰tte im n‰heren Umfeld, jedoch ohne urkundlichen Nachweis.	
Radgasse	Indizort	48.07695848	14.28363888	Ort mit topographischen oder toponymischen Hinweisen auf eine Richtst‰tte im n‰heren Umfeld, jedoch ohne urkundlichen Nachweis.	
Schedlaignersˆlde	Indizort	48.07743788	14.38074775	Ort mit topographischen oder toponymischen Hinweisen auf eine Richtst‰tte im n‰heren Umfeld, jedoch ohne urkundlichen Nachweis.	
Wasenmeisterhaus am Fuchsbichl	Abdecker	48.07756	14.257888	Abdeckerhaus am Fuchsbichl	https://doris.ooe.gv.at/themen/geschichte/hofnamenreport.aspx?hn_nr=92319
Totenhˆlzl	Indizort	48.07773736	13.89075939	Ort mit topographischen oder toponymischen Hinweisen auf eine Richtst‰tte im n‰heren Umfeld, jedoch ohne urkundlichen Nachweis.	
Wasenmeisterei	Abdecker	48.07808	13.497541	Abdeckerhaus Frankenburg am Hausruck	https://doris.ooe.gv.at/themen/geschichte/hofnamenreport.aspx?hn_nr=3929
Rabenbauer	Indizort	48.080594	14.101716	Ort mit topographischen oder toponymischen Hinweisen auf eine Richtst‰tte im n‰heren Umfeld, jedoch ohne urkundlichen Nachweis.	
Hochgerichtskapelle	Richtst‰tten	48.060595	15.13197	"Die Inhaber der Herrschaft Purgstall hatten ab 1415 die Hohe ""Gerichtsbarkeit inne"	https://www.purgstall-erlauf.gv.at/Hochgericht
Galgen	Richtst‰tten	48.062891	13.78611	fiel im Jahre 1556 vermorscht zusammen, wieder aufgebaut (JL)	https://maps.arcanum.com/de/map/europe-18century-firstsurvey/?bbox=1533437.3824352073%2C6116151.5802559005%2C1537799.0703617302%2C6117869.024735183&map-list=1&layers=163%2C165
Galgen Atzbach	Richtst‰tten	48.0807	13.69798	noch nicht lokalisiert	
Henkham	Indizort	48.08271323	12.95724434	Ort mit topographischen oder toponymischen Hinweisen auf eine Richtst‰tte im n‰heren Umfeld, jedoch ohne urkundlichen Nachweis.	
Abdecker	Abdecker	48.08683	14.140333	Abdeckerhaus im Schachen	https://doris.ooe.gv.at/themen/geschichte/hofnamenreport.aspx?hn_nr=88858
Hinkermeier	Galgenhaus	48.08791	14.110531	Hinkenhof	https://doris.ooe.gv.at/themen/geschichte/hofnamenreport.aspx?hn_nr=87526
Richterin	Indizort	48.08840894	13.63094812	Ort mit topographischen oder toponymischen Hinweisen auf eine Richtst‰tte im n‰heren Umfeld, jedoch ohne urkundlichen Nachweis.	
Schedlg¸tl	Indizort	48.08918156	13.82203337	Ort mit topographischen oder toponymischen Hinweisen auf eine Richtst‰tte im n‰heren Umfeld, jedoch ohne urkundlichen Nachweis.	
Schˆrgendorf	Indizort	48.08926529	13.8131496	Ort mit topographischen oder toponymischen Hinweisen auf eine Richtst‰tte im n‰heren Umfeld, jedoch ohne urkundlichen Nachweis.	
Urtlmeiergut	Indizort	48.09002991	14.36985824	Ort mit topographischen oder toponymischen Hinweisen auf eine Richtst‰tte im n‰heren Umfeld, jedoch ohne urkundlichen Nachweis.	
Rothhueb	Flurnamen	48.090059	14.114512	Rothhueb d¸rfte vom altgermanischen ruot (ÑRecht, Ordnungì) stammen und auf einen Ort hinweisen, an dem einst Recht gesprochen wurde. JL FK, FL	https://maps.arcanum.com/de/map/europe-18century-firstsurvey/?bbox=1569540.898961317%2C6120792.805625565%2C1573902.58688784%2C6122510.250104848&map-list=1&layers=163%2C165
Rothub	Indizort	48.090059	14.114512	Ort mit topographischen oder toponymischen Hinweisen auf eine Richtst‰tte im n‰heren Umfeld, jedoch ohne urkundlichen Nachweis.	
Schedlberg	Indizort	48.09047814	14.26296505	aus Schedlberg wurde Schiedlberg	
Abdecker Thomasroith	Abdecker	48.090645	13.63991	Wasenmeisterhaus	https://doris.ooe.gv.at/themen/geschichte/hofnamenreport.aspx?hn_nr=8587
Wasenmeister Ertlmoos	Abdecker	48.092326	13.40267	Wasenmeister zu Ertlmoos	https://doris.ooe.gv.at/themen/geschichte/hofnamenreport.aspx?hn_nr=41964
Schedlgut	Indizort	48.09250297	13.84103911	Ort mit topographischen oder toponymischen Hinweisen auf eine Richtst‰tte im n‰heren Umfeld, jedoch ohne urkundlichen Nachweis.	
Schedlgut	Indizort	48.093308	13.83960665	Ort mit topographischen oder toponymischen Hinweisen auf eine Richtst‰tte im n‰heren Umfeld, jedoch ohne urkundlichen Nachweis.	
Helml-Kreuz	Kleindenkm‰ler	48.0934	13.898803	stand urspr¸nglich an der Linzerstraþe auf Hˆhe der Firma Kneissl, erinnert an den Ñletzten Gangì derer, die einst vom Kerker in Lambach zur Richtst‰tte gingen.	
Abdecker	Abdecker	48.09377	13.9074		
Galgen Frankenburg	Richtst‰tten	48.08073	13.49366	noch nicht genau lokalisiert	
Untergallngut	Galgenhaus	48.09756	14.09083	Untergallngut zu Oberweidach	https://doris.ooe.gv.at/themen/geschichte/hofnamenreport.aspx?hn_nr=87010
Gerichtsholz	Flurnamen	48.09786	13.914761		
Abdecker Ampflwang	Abdecker	48.097955	13.556821	Abdeckerh‰usl	https://doris.ooe.gv.at/themen/geschichte/hofnamenreport.aspx?hn_nr=5508
Radwiesen	Flurnamen	48.10085	13.16275	Der Flurname kˆnnte auf ein nahe Richtst‰tte hinweisen, auf der Ñger‰dertì wurde, FK	https://maps.arcanum.com/de/map/cadastral/?bbox=1463093.7284914851%2C6122699.67673976%2C1467450.63910374%2C6124417.121219043&map-list=1&layers=3%2C4
Radwiesen	Indizort	48.10085	13.162757	Ort mit topographischen oder toponymischen Hinweisen auf eine Richtst‰tte im n‰heren Umfeld, jedoch ohne urkundlichen Nachweis.	
Gerichtsplatz Schachenwald	Richtst‰tten	48.08095	14.11687	ehemalige Richtst‰tte Stift Kremsm¸nster	
Geigenrath	Indizort	48.10319155	14.42120256	Ort mit topographischen oder toponymischen Hinweisen auf eine Richtst‰tte im n‰heren Umfeld, jedoch ohne urkundlichen Nachweis.	
Wasenmeister Mattighofen	Abdecker	48.103295	13.17432	Wasensˆlden	https://doris.ooe.gv.at/themen/geschichte/hofnamenreport.aspx?hn_nr=36976
Hochgericht Lambach	Richtst‰tten	48.09649	13.904353	"Detail aus der Lambacher Hausmappe<br><img src=""bilder/Lambach_Detail.jpg"" alt=""Hochgericht Lambach""     style=""width:260px;border-radius:8px;margin-top:6px;""><br><span style=""font-size:0.9em;"">Quelle: Stiftsarchiv Lambach, Lambacher Hausmappe, ca. 1723, Mappe 2.</span>"	
Rote Kapelle	Indizort	48.10647535	13.92675681	Ort mit topographischen oder toponymischen Hinweisen auf eine Richtst‰tte im n‰heren Umfeld, jedoch ohne urkundlichen Nachweis.	
Galgen Wolfsegg	Richtst‰tten	48.10299	13.66966	Wolf ó Haken am Galgen, auch Galgen selbst, also alte Richtst‰tte	
Schˆrgend	Indizort	48.11022499	14.00211991	Ort mit topographischen oder toponymischen Hinweisen auf eine Richtst‰tte im n‰heren Umfeld, jedoch ohne urkundlichen Nachweis.	
Radinger	Indizort	48.11024751	14.04098172	Ort mit topographischen oder toponymischen Hinweisen auf eine Richtst‰tte im n‰heren Umfeld, jedoch ohne urkundlichen Nachweis.	
Schˆrgendorf	Indizort	48.11029241	14.01035157	Ort mit topographischen oder toponymischen Hinweisen auf eine Richtst‰tte im n‰heren Umfeld, jedoch ohne urkundlichen Nachweis.	
Gut beim Rathen	Indizort	48.11059143	14.04024971	Ort mit topographischen oder toponymischen Hinweisen auf eine Richtst‰tte im n‰heren Umfeld, jedoch ohne urkundlichen Nachweis.	
Dumenschedlgut	Indizort	48.11063934	14.36201216	Ort mit topographischen oder toponymischen Hinweisen auf eine Richtst‰tte im n‰heren Umfeld, jedoch ohne urkundlichen Nachweis.	
Gallngut	Galgenhaus	48.11143	14.09407	Galln oder Weydingergut	https://doris.ooe.gv.at/themen/geschichte/hofnamenreport.aspx?hn_nr=87107
Rabenberg	Indizort	48.114357	13.776822	Ort mit topographischen oder toponymischen Hinweisen auf eine Richtst‰tte im n‰heren Umfeld, jedoch ohne urkundlichen Nachweis.	
Schwertmanng¸tl	Indizort	48.11484914	13.79533725	Ort mit topographischen oder toponymischen Hinweisen auf eine Richtst‰tte im n‰heren Umfeld, jedoch ohne urkundlichen Nachweis.	
Rabenbauergut	Indizort	48.115403	14.402111	Ort mit topographischen oder toponymischen Hinweisen auf eine Richtst‰tte im n‰heren Umfeld, jedoch ohne urkundlichen Nachweis.	
Wolfersberg	Flurnamen	48.11546	13.455709	JLÝñ Josephinische Landesaufnahme (1775ñ1777)	https://maps.arcanum.com/de/map/europe-18century-firstsurvey/?bbox=1492588.239981773%2C6123225.822168858%2C1501311.615834819%2C6126660.711127424&map-list=1&layers=163%2C165
Richt- oder Scheideweg	Indizort	48.11605906	12.83748969	Ort mit topographischen oder toponymischen Hinweisen auf eine Richtst‰tte im n‰heren Umfeld, jedoch ohne urkundlichen Nachweis.	
Schindeggerg¸tl	Indizort	48.1168508	13.356459	Ort mit topographischen oder toponymischen Hinweisen auf eine Richtst‰tte im n‰heren Umfeld, jedoch ohne urkundlichen Nachweis.	
W¸rglau	Flurnamen	48.11878	13.448556	JLÝñ Josephinische Landesaufnahme (1775ñ1777)	https://maps.arcanum.com/de/map/europe-18century-firstsurvey/?bbox=1492588.239981773%2C6123225.822168858%2C1501311.615834819%2C6126660.711127424&map-list=1&layers=163%2C165
Schindecker	Indizort	48.12206245	13.27873288	Ort mit topographischen oder toponymischen Hinweisen auf eine Richtst‰tte im n‰heren Umfeld, jedoch ohne urkundlichen Nachweis.	
Wolfen- oder Waseng¸tl	Abdecker	48.123337	13.646379	Wolfen- oder Waseng¸tl, der Wolf war der Haken am Galgen	https://doris.ooe.gv.at/themen/geschichte/hofnamenreport.aspx?hn_nr=8850
Rabenberg	Indizort	48.125429	13.996512	Ort mit topographischen oder toponymischen Hinweisen auf eine Richtst‰tte im n‰heren Umfeld, jedoch ohne urkundlichen Nachweis.	
H‰usl am Rabenstein	Indizort	48.12742	13.994712	Ort mit topographischen oder toponymischen Hinweisen auf eine Richtst‰tte im n‰heren Umfeld, jedoch ohne urkundlichen Nachweis.	
Wasenmeister Hochburg	Abdecker	48.12779	12.885236	Wasenmeistersˆlde, FL	https://doris.ooe.gv.at/themen/geschichte/hofnamenreport.aspx?hn_nr=31547
Rabensteinerg¸tl	Indizort	48.1283	13.996646	Ort mit topographischen oder toponymischen Hinweisen auf eine Richtst‰tte im n‰heren Umfeld, jedoch ohne urkundlichen Nachweis.	
Abdecker Hˆrbach	Abdecker	48.128517	13.751773		
Rothlehner	Indizort	48.1299907	14.2378704	Ort mit topographischen oder toponymischen Hinweisen auf eine Richtst‰tte im n‰heren Umfeld, jedoch ohne urkundlichen Nachweis.	
Schwerdtmanngut	Indizort	48.1302594	13.79548151	Ort mit topographischen oder toponymischen Hinweisen auf eine Richtst‰tte im n‰heren Umfeld, jedoch ohne urkundlichen Nachweis.	
Rathgut	Indizort	48.13102038	14.21184011	Ort mit topographischen oder toponymischen Hinweisen auf eine Richtst‰tte im n‰heren Umfeld, jedoch ohne urkundlichen Nachweis.	
Abdecker Laah	Abdecker	48.13114	14.36043	Wasenmeister im Hamet	https://doris.ooe.gv.at/themen/geschichte/hofnamenreport.aspx?hn_nr=96142
Abdecker Julianaberg	Abdecker	48.13115	14.20677		
Schedlgut	Indizort	48.13127124	13.79635859	Ort mit topographischen oder toponymischen Hinweisen auf eine Richtst‰tte im n‰heren Umfeld, jedoch ohne urkundlichen Nachweis.	
Radner	Indizort	48.1320799	14.304781	Ort mit topographischen oder toponymischen Hinweisen auf eine Richtst‰tte im n‰heren Umfeld, jedoch ohne urkundlichen Nachweis.	
Galgen Bergern	Richtst‰tten	48.10415	13.632432	1698 wird ein letzter Delinquent am Galgen oberhalb des Richterhauses erh‰ngt , nachdem er vorher einer h¸bschen Frau die Nase abgebissen hatte.	https://www.ottnang.info/Archiv/Ortschaften/bergern/Rueckblick.htm
Scheibmayer	Indizort	48.13286552	14.41931526	Ort mit topographischen oder toponymischen Hinweisen auf eine Richtst‰tte im n‰heren Umfeld, jedoch ohne urkundlichen Nachweis.	
Wolfer	Indizort	48.13733776	14.29789118	Ort mit topographischen oder toponymischen Hinweisen auf eine Richtst‰tte im n‰heren Umfeld, jedoch ohne urkundlichen Nachweis.	
Schindeckergut	Indizort	48.13759166	13.37669701	Ort mit topographischen oder toponymischen Hinweisen auf eine Richtst‰tte im n‰heren Umfeld, jedoch ohne urkundlichen Nachweis.	
Scheiben	Flurnamen	48.1384	13.63145	Bahnhof Scheiben, Hinweis auf die nahe Galgenbuche?	
Mar in Rad	Indizort	48.13846103	14.3667737	Ort mit topographischen oder toponymischen Hinweisen auf eine Richtst‰tte im n‰heren Umfeld, jedoch ohne urkundlichen Nachweis.	
Spiesberg	Flurnamen	48.14027	12.96131	Spiesberg d¸rfte seinen Namen vom mittelalterlichen Brauch ableiten, die Kˆpfe der Hingerichteten auf Spieþen oder Lanzen zur Schau zu stellen. Der Flurname bezeichnet somit mit hoher Wahrscheinlichkeit einen Platz im Umfeld der Richtst‰tte, an dem die Exekution oder die ˆffentliche Abschreckung stattfand.	
Galgengut	Galgenhaus	48.14053	Dez.77	Galgengut	https://doris.ooe.gv.at/themen/geschichte/hofnamenreport.aspx?hn_nr=32064
Wasenmeisterh‰usl Holzgassen	Abdecker	48.14087	12.817008	Wasenmeisterh‰usl	https://doris.ooe.gv.at/themen/geschichte/hofnamenreport.aspx?hn_nr=30748
Wasenmeisterhaus Altenhof	Abdecker	48.141417	13.68118	Wasenmeisterhaus und Wasenmeisterhaus altes	https://doris.ooe.gv.at/themen/geschichte/hofnamenreport.aspx?hn_nr=10592
Wolffacher	Indizort	48.14207114	13.37771149	Ort mit topographischen oder toponymischen Hinweisen auf eine Richtst‰tte im n‰heren Umfeld, jedoch ohne urkundlichen Nachweis.	
Feuerrad	Indizort	48.14295902	14.26635637	Ort mit topographischen oder toponymischen Hinweisen auf eine Richtst‰tte im n‰heren Umfeld, jedoch ohne urkundlichen Nachweis.	
Rabenbergergut	Indizort	48.14303	13.573424	Ort mit topographischen oder toponymischen Hinweisen auf eine Richtst‰tte im n‰heren Umfeld, jedoch ohne urkundlichen Nachweis.	
Wolfenkreuz	Kleindenkm‰ler	48.143805	13.62665	eigentlich ein Marien-Bildstˆckl	https://www.ooegeschichte.at/media/migrated/bibliografiedb/hbl1973_1_2_57-80.pdf
Richtst‰tte Kematen	Richtst‰tten	48.10776	14.17305	Richtst‰tte neben das Kemat-Schachen bei der Welser Straþ auf der linken Hand	
Abdecker Holzgassen	Abdecker	48.147135	13.93495	Wasenmeisterh‰usl	https://doris.ooe.gv.at/themen/geschichte/hofnamenreport.aspx?hn_nr=22686
Abdecker Eberschwang	Abdecker	48.14725	13.56481	Abdeckerhaus zu Reinthall	https://doris.ooe.gv.at/themen/geschichte/hofnamenreport.aspx?hn_nr=48821
Urtlm¸hle	Indizort	48.14830279	13.74189987	Ort mit topographischen oder toponymischen Hinweisen auf eine Richtst‰tte im n‰heren Umfeld, jedoch ohne urkundlichen Nachweis.	
Galgenh¸gel	Flurnamen	48.15042	13.9805	ein Galgenstandort aus viel fr¸herer Zeit	https://www.roemerweg.at/wp-content/uploads/2025/11/Galgenhuegel_2025.pdf
Wasenmeister St. Marien	Abdecker	48.154443	14.27172	Wasenmeisterhaus im St.Mareiner Holz, JL, FL	https://doris.ooe.gv.at/themen/geschichte/hofnamenreport.aspx?hn_nr=92982
Galgenbuche	Richtst‰tten	48.13254	13.62263		
Galgenhaus	Galgenhaus	48.156069	13.99041	"Galgenhaus, FL, ca. 1965 geschleift. Letzter Besitzer: ""der alte Hutterer"""	
Abdecker Offenhausen	Abdecker	48.156224	13.81506	Wasenmeister- oder Abdeckerhaus	https://doris.ooe.gv.at/themen/geschichte/hofnamenreport.aspx?hn_nr=17775
Richtst‰tte St. Marien	Richtst‰tten	48.14638	14.27907	Schranne, die Hinrichtungen fanden drauþen im Samareiner Holz statt, dort wo ein Kreuz steht	
Schandkreuz (vermutet)	Pranger	48.1566	14.0285	"Auf dem Stich von Merian aus dem Jahre 1640 (bzw. Vischer 1674) rechts neben der kaiserlichen Burg zu sehen.<br><img src='bilder/Schandkreuz.jpg' alt='Schandkreuz Wels' style='width:260px;border-radius:8px;margin-top:6px;'>"	
Schranne St. Gilgen	Richtst‰tten	48.15182	14.02893	1550 die Stadtknechte mit Weren zu den Richten oder Schran gen St. Gilgen Aigen ganngen sein	https://www.ooegeschichte.at/media/migrated/bibliografiedb/jbmusver_wels_1955_02_0124-0151.pdf
Schedlstraþe	Flurnamen	48.15737	13.98806	oder alte Lambacher Straþe, heute Rˆmerstraþe	orte/schedlstrasse.html
Winterrathner	Indizort	48.15765808	14.09693046	Ort mit topographischen oder toponymischen Hinweisen auf eine Richtst‰tte im n‰heren Umfeld, jedoch ohne urkundlichen Nachweis.	
Fronfeste Wels	Richtst‰tten	48.15597	14.0253	Johann Hofreiter wird am 9.7.1886 im hinteren Hof der Welser Fronfeste geh‰ngt. Dies war die letzte Hinrichtung w‰hrend der Monarchie in Wels. Er wird noch am selben Abend in aller Stille am Friedhof beigesetzt.	
Galgenh‰usel	Galgenhaus	48.15894	14.00149	Galgenhaus in Wagrain oder H‰usl beim Siechhof	
Richtst‰tte	Richtst‰tten	48.15648	14.02445	in der Welser Pancharte erw‰hnt	orte/rathauswels.html
Aichenrath	Indizort	48.16043331	14.11660377	Ort mit topographischen oder toponymischen Hinweisen auf eine Richtst‰tte im n‰heren Umfeld, jedoch ohne urkundlichen Nachweis.	
Kranberg	Indizort	48.161745	14.129142	Ort mit topographischen oder toponymischen Hinweisen auf eine Richtst‰tte im n‰heren Umfeld, jedoch ohne urkundlichen Nachweis.	
im Rath	Indizort	48.1625011	14.14147131	Ort mit topographischen oder toponymischen Hinweisen auf eine Richtst‰tte im n‰heren Umfeld, jedoch ohne urkundlichen Nachweis.	
Schwertlh‰usl	Indizort	48.165477	13.10713187	Ort mit topographischen oder toponymischen Hinweisen auf eine Richtst‰tte im n‰heren Umfeld, jedoch ohne urkundlichen Nachweis.	
Radberg	Indizort	48.16696814	14.27962738	Ort mit topographischen oder toponymischen Hinweisen auf eine Richtst‰tte im n‰heren Umfeld, jedoch ohne urkundlichen Nachweis.	
Bauer zu Rad	Indizort	48.16758313	14.44970402	Ort mit topographischen oder toponymischen Hinweisen auf eine Richtst‰tte im n‰heren Umfeld, jedoch ohne urkundlichen Nachweis.	
Rathner in der Gstettn	Indizort	48.16927984	14.11600999	Ort mit topographischen oder toponymischen Hinweisen auf eine Richtst‰tte im n‰heren Umfeld, jedoch ohne urkundlichen Nachweis.	
Wasenmeister Thaling	Abdecker	48.16957	14.47681	Waasenmaisterhaus auf der Haid	https://doris.ooe.gv.at/themen/geschichte/hofnamenreport.aspx?hn_nr=100153
Kreisgericht Wels	Richtst‰tten	48.156999	14.019104	Erˆffnung im November 1900, k.k. Justizpalast (!)	orte/kreisgerichtwels.html
Wasenmeister See	Abdecker	48.17101	13.867869	Wasenmeisterhaus	https://doris.ooe.gv.at/themen/geschichte/hofnamenreport.aspx?hn_nr=20134
Hochgericht der Stadt Wels	Richtst‰tten	48.15771	13.991586	Dreischl‰friger Galgen, LH, zahlreiche Skelettfunde 2023 und 2026	orte/wels-hochgericht.html
Wˆlflkreuzs‰ule	Kleindenkm‰ler	48.17293	14.01892	Errichtung unbekannt, nach Besch‰digung durch LKW an den Straþenrand versetzt	
Radfeld	Indizort	48.17321216	14.45371561	Ort mit topographischen oder toponymischen Hinweisen auf eine Richtst‰tte im n‰heren Umfeld, jedoch ohne urkundlichen Nachweis.	
Richtst‰tte Niederneukirchen	Richtst‰tten	48.16043	14.339491	"Schranne / Richtst‰tte befand sich ""aussen auf dem Creuzholz, da stet ein Creuz"""	
Richtberg	Flurnamen	48.18264	13.96309	m¸ndlich ¸berliefert	
Richtst‰tte	Richtst‰tten	48.170011	12.900399	Hinrichtungsst‰tte Gilgenbergbogen	
Abdecker	Abdecker	48.18339	13.62813	Wasenmeisterhaus im Hausruck	https://doris.ooe.gv.at/themen/geschichte/hofnamenreport.aspx?hn_nr=7852
Eggerkapelle	Kleindenkm‰ler	48.183437	13.96823	Armes¸nderkapelle vom nahen Richtberg, Funktion nicht belegt.	
Rabengut	Indizort	48.183478	14.434985	Ort mit topographischen oder toponymischen Hinweisen auf eine Richtst‰tte im n‰heren Umfeld, jedoch ohne urkundlichen Nachweis.	
Kronleiten	Flurnamen	48.18465	12.981279	Kr‰hen-/Raben= Synonym f¸r Richtst‰tte, KronLEITEN kˆnnte aus Kraanleiten (ÑKr‰henleitenì) entstanden sein ñ ein Name, der h‰ufig Richtst‰tten bezeichnet, da sich dort Raben und Kr‰hen sammelten.	
Todengraberh‰usl	Galgenhaus	48.1848	14.08349	N‰he Auerspergisches Blutger¸st, FL	https://doris.ooe.gv.at/themen/geschichte/hofnamenreport.aspx?hn_nr=27161
Wasenhofstatt	Abdecker	48.18561	14.69456	Wasenhofstatt, Wohn- und Arbeitsort des Wasenmeisters	https://doris.ooe.gv.at/themen/geschichte/hofnamenreport.aspx?hn_nr=72302
Schindergraben	Flurnamen	48.1871	14.06051	WZ 1931-05-29 Seite 17	https://anno.onb.ac.at/cgi-content/anno?aid=wez&datum=19310529&seite=17&zoom=33&query=%22Schindergraben%22&ref=anno-search
Schedlhaus	Indizort	48.18775425	14.43577687	Ort mit topographischen oder toponymischen Hinweisen auf eine Richtst‰tte im n‰heren Umfeld, jedoch ohne urkundlichen Nachweis.	
Galgen in der Flez	Richtst‰tten	48.17285	14.01854	zahlreiche Hinrichtungen im 19. Jh., daneben ehem. Gasthaus 'zur schˆnen Aussicht'	orte/flez.html
Schedlberg	Indizort	48.19028615	14.43989224	Ort mit topographischen oder toponymischen Hinweisen auf eine Richtst‰tte im n‰heren Umfeld, jedoch ohne urkundlichen Nachweis.	
Schˆrgenauergut	Indizort	48.19067352	13.64297312	Ort mit topographischen oder toponymischen Hinweisen auf eine Richtst‰tte im n‰heren Umfeld, jedoch ohne urkundlichen Nachweis.	
Todenauer	Indizort	48.19272763	14.20390431	Ort mit topographischen oder toponymischen Hinweisen auf eine Richtst‰tte im n‰heren Umfeld, jedoch ohne urkundlichen Nachweis.	
Rabenbergergut	Indizort	48.193977	13.553208	Ort mit topographischen oder toponymischen Hinweisen auf eine Richtst‰tte im n‰heren Umfeld, jedoch ohne urkundlichen Nachweis.	
Abdeckerhaus in Dopplgraben	Abdecker	48.19539	13.9897	Abdecker- oder Wasenmeisterhaus, heute Reitstall	https://doris.ooe.gv.at/themen/geschichte/hofnamenreport.aspx?hn_nr=24291
Richtst‰tte bei der Wegscheid	Richtst‰tten	48.17678	12.830207	hier wurde der Fricklbub am 15.12.1719 hingerichtet	http://www.anton-praetorius.de/downloads/Burghausen_Raimund_Frickl_Zaubereiprozess_1719.pdf
Auerspergisches Blutger¸st	Richtst‰tten	48.18309	14.066862	unter Christoph Weiþ errichtetes Hochgericht, JL,	orte/auerspergwels.html
Gerichtsdienerhaus	Indizort	48.19763596	14.42203982	Ort mit topographischen oder toponymischen Hinweisen auf eine Richtst‰tte im n‰heren Umfeld, jedoch ohne urkundlichen Nachweis.	
Rabensteinerh‰usel	Galgenhaus	48.19775	14.22141	Kr‰hen-/Rabenstein = Synonym f¸r Richtst‰tte, Kronstein d¸rfte aus Kraan- oder Rabenstein (ÑKr‰hensteinì) entstanden sein ñ ein Name, der h‰ufig Richtst‰tten bezeichnet, da sich dort Raben und Kr‰hen sammelten.	https://doris.ooe.gv.at/themen/geschichte/hofnamenreport.aspx?hn_nr=91121
Schedlhaus	Indizort	48.19979243	14.45388879	Ort mit topographischen oder toponymischen Hinweisen auf eine Richtst‰tte im n‰heren Umfeld, jedoch ohne urkundlichen Nachweis.	
Rabenberg	Indizort	48.200315	14.452666	Ort mit topographischen oder toponymischen Hinweisen auf eine Richtst‰tte im n‰heren Umfeld, jedoch ohne urkundlichen Nachweis.	
Abdeckerhaus Waasen	Abdecker	48.20055	13.176888	Wasenmeister	https://doris.ooe.gv.at/themen/geschichte/hofnamenreport.aspx?hn_nr=37068
Wasenmeisterhaus	Abdecker	48.2007	14.10826	FK, FL	https://doris.ooe.gv.at/themen/geschichte/hofnamenreport.aspx?hn_nr=27473
Wasenstatt Waasen	Abdecker	48.20113	13.17138	Waasenstadt mit Haus	https://doris.ooe.gv.at/themen/geschichte/hofnamenreport.aspx?hn_nr=36912
Radwinkel	Flurnamen	48.20242	Dez.07	Der Flurname kˆnnte auf ein nahe Richtst‰tte hinweisen, auf der Ñger‰dertì wurde, ÑRadscheibenì. JL, FL, FK	https://maps.arcanum.com/de/map/cadastral/?bbox=1441738.980141825%2C6139851.443103662%2C1446095.89075408%2C6141568.887582945&map-list=1&layers=3%2C4
Rambergergut	Indizort	48.20243	13.450055	Ort mit topographischen oder toponymischen Hinweisen auf eine Richtst‰tte im n‰heren Umfeld, jedoch ohne urkundlichen Nachweis.	
Abdecker Wildenau	Abdecker	48.203	13.308109	Wasenmeisterei	https://doris.ooe.gv.at/themen/geschichte/hofnamenreport.aspx?hn_nr=39894
Krenhanslsˆlden	Indizort	48.203656	13.25792	Ort mit topographischen oder toponymischen Hinweisen auf eine Richtst‰tte im n‰heren Umfeld, jedoch ohne urkundlichen Nachweis.	
Wolfsberg	Indizort	48.20525518	13.25676322	Ort mit topographischen oder toponymischen Hinweisen auf eine Richtst‰tte im n‰heren Umfeld, jedoch ohne urkundlichen Nachweis.	
Galgenberg Ranspeck	Richtst‰tten	48.18838	13.677024	bis ca. 1600	https://www.ooegeschichte.at/ausstellungen/der-hausruck-als-grenze/grenzbeschreibungen/grenzkarten
Rothenbuch	Flurnamen	48.208	Dez.71	Eine ÑRotbucheì kˆnnte urspr¸nglich ÑRuotbucheì, also die ÑRechtsbucheì gewesen sein. JL	https://maps.arcanum.com/de/map/europe-18century-firstsurvey/?bbox=1439226.586063717%2C6139159.299817597%2C1447940.4072882272%2C6142594.188776162&map-list=1&layers=163%2C165
Rabensteinerh‰usel	Indizort	48.20902	14.256139	Ort mit topographischen oder toponymischen Hinweisen auf eine Richtst‰tte im n‰heren Umfeld, jedoch ohne urkundlichen Nachweis.	
Abdecker Traun	Abdecker	48.21117	14.215525		
Abdecker Gallspach	Abdecker	48.211308	13.80722	Abdeckerhaus	https://doris.ooe.gv.at/themen/geschichte/hofnamenreport.aspx?hn_nr=17307
Dingberg	Indizort	48.21178304	13.89009454	Ort mit topographischen oder toponymischen Hinweisen auf eine Richtst‰tte im n‰heren Umfeld, jedoch ohne urkundlichen Nachweis.	
Hochgericht Haag	Richtst‰tten	48.18915	13.62177		
Wasenmeister	Abdecker	48.217381	13.49049	Wasenmeisterhaus, Wasenstatt in der Etz	https://doris.ooe.gv.at/themen/geschichte/hofnamenreport.aspx?hn_nr=45870
Rabenberg	Indizort	48.218337	13.507382	Ort mit topographischen oder toponymischen Hinweisen auf eine Richtst‰tte im n‰heren Umfeld, jedoch ohne urkundlichen Nachweis.	
Scheiben	Flurnamen	48.21958	14.47811	 ÑScheibenì kˆnnte auf einen Ort hinweisen, an dem Ñger‰dertì wurde, also der Ort der ÑRadscheibenì.	
Wolfsegg	Indizort	48.22077793	13.22874629	Ort mit topographischen oder toponymischen Hinweisen auf eine Richtst‰tte im n‰heren Umfeld, jedoch ohne urkundlichen Nachweis.	
Richtst‰tte Hasenufer	Richtst‰tten	48.19668	14.22422	in der Schranne wurde enthauptet, auf dem Haidlein bey dem Chreuz ei die Stras hinein zum Traunufer wurde ger‰dert und gebrannt	
Abdecker Ried	Abdecker	48.224703	13.4413	Abdeckerh‰usl	https://doris.ooe.gv.at/themen/geschichte/hofnamenreport.aspx?hn_nr=43558
Galgen Pˆchlarn	Richtst‰tten	48.197039	15.22911	s¸dl. der Stadt auf der Galgenleiten, JL, FL	https://maps.arcanum.com/de/map/europe-18century-firstsurvey/?bbox=1691060.1200520245%2C6138891.974295995%2C1699054.9554792272%2C6141254.356201434&map-list=1&layers=163%2C165
Kˆpfstatt Angerl	Richtst‰tten	48.20607	13.484908	bei St. Anna, Haus-Nummer 334, an der Grenze des Burgfrieds (Grenzgasse!)	https://anno.onb.ac.at/cgi-content/anno?aid=oon&datum=19481211&seite=6&zoom=33&query=%22K%C3%B6pfstatt%2BAngerl%22~10&ref=anno-search
Rabeng¸tl	Indizort	48.227303	13.524535	Ort mit topographischen oder toponymischen Hinweisen auf eine Richtst‰tte im n‰heren Umfeld, jedoch ohne urkundlichen Nachweis.	
Abdecker Grein	Abdecker	48.227424	14.849469	Abdeckerh‰usl	https://doris.ooe.gv.at/themen/geschichte/hofnamenreport.aspx?hn_nr=75516
Scheiben	Indizort	48.22759628	13.53841716	Ort mit topographischen oder toponymischen Hinweisen auf eine Richtst‰tte im n‰heren Umfeld, jedoch ohne urkundlichen Nachweis.	
Kronberger	Indizort	48.227746	14.761443	Ort mit topographischen oder toponymischen Hinweisen auf eine Richtst‰tte im n‰heren Umfeld, jedoch ohne urkundlichen Nachweis.	
Rabenberg	Indizort	48.229155	13.588584	Ort mit topographischen oder toponymischen Hinweisen auf eine Richtst‰tte im n‰heren Umfeld, jedoch ohne urkundlichen Nachweis.	
Rabenbergerh‰usl	Indizort	48.229161	13.503263	Ort mit topographischen oder toponymischen Hinweisen auf eine Richtst‰tte im n‰heren Umfeld, jedoch ohne urkundlichen Nachweis.	
Gerichtsfeld	Flurnamen	48.2309	15.136916	FK Franziszeischer Kataster	https://maps.arcanum.com/de/map/cadastral/?bbox=1682994.6591130998%2C6144851.955614676%2C1686992.076826701%2C6146033.146567396&map-list=1&layers=3%2C4
Galgenkreuz (Richtkreuz)	Kleindenkm‰ler	48.23106	14.874974	Inschrift: ehem. Richtst‰tte	https://www.ooegeschichte.at/forschung/kleindenkmal/110637
Hochgericht Enns 2	Richtst‰tten	48.20633	14.49876	Landgericht Burg Enns (Landesgerichtskarte 1906)	
Hochgericht am Hochfeld	Richtst‰tten	48.210547	13.49051	vor dem Fleischtor (Linzertor), jenseits der Breitsach, am Fuþe des Schloþberges	https://anno.onb.ac.at/cgi-content/anno?aid=oon&datum=19481211&seite=6&zoom=33&query=%22K%C3%B6pfstatt%2BAngerl%22~10&ref=anno-search
Abdeckerei an Hart	Abdecker	48.231808	14.767347	Abdeckerei an Hart	https://doris.ooe.gv.at/themen/geschichte/hofnamenreport.aspx?hn_nr=73857
Wasenmeister in Ried	Abdecker	48.23219	13.47606	Wasenmeister in Ried	https://doris.ooe.gv.at/themen/geschichte/hofnamenreport.aspx?hn_nr=45059
Hochgericht Enns	Richtst‰tten	48.2166	14.445084	"Hochgericht Kristein, Karte aus dem Jahr 1655, ""Justitia""<br><img src='bilder/Kristein_Richtst‰tte_1655.jpg' alt='1655' style='width:260px;border-radius:8px;margin-top:6px;'>"	
Abdecker Grein	Abdecker	48.235775	14.839206	Diener- oder Abdeckerh‰usl	https://doris.ooe.gv.at/themen/geschichte/hofnamenreport.aspx?hn_nr=75386
Schˆrgenhuber	Indizort	48.23963588	14.75504171	Ort mit topographischen oder toponymischen Hinweisen auf eine Richtst‰tte im n‰heren Umfeld, jedoch ohne urkundlichen Nachweis.	
Abdecker Parz	Abdecker	48.239741	13.85498		
Pranger Mauthausen	Pranger	48.24075	14.51704	stand urspr¸nglich gegen¸ber dem Br‰uhaus, 1583	https://www.donauregion.at/mauthausen-sehenswertes/oesterreich-poi/detail/430029165/pranger.html
Galgen	Richtst‰tten	48.223	Dez.59	Hugo von Preen fand hier mehrere verscharrte Leichen (Quelle: Bundwerk, 2013 Seite 125)	
Schˆrgenhub	Indizort	48.2455245	14.3012284	Ort mit topographischen oder toponymischen Hinweisen auf eine Richtst‰tte im n‰heren Umfeld, jedoch ohne urkundlichen Nachweis.	
Rabeneck	Indizort	48.245757	13.770512	Ort mit topographischen oder toponymischen Hinweisen auf eine Richtst‰tte im n‰heren Umfeld, jedoch ohne urkundlichen Nachweis.	
Wasenmeister Langholzfeld	Abdecker	48.24587	14.242898	Abdeckerhaus	https://doris.ooe.gv.at/themen/geschichte/hofnamenreport.aspx?hn_nr=28814
Rathfeld	Indizort	48.24591576	14.36104226	Ort mit topographischen oder toponymischen Hinweisen auf eine Richtst‰tte im n‰heren Umfeld, jedoch ohne urkundlichen Nachweis.	
Radthansfeld	Indizort	48.24655746	14.07581328	Ort mit topographischen oder toponymischen Hinweisen auf eine Richtst‰tte im n‰heren Umfeld, jedoch ohne urkundlichen Nachweis.	
Galgen Enns	Richtst‰tten	48.22486	14.48168	Stadtgericht Enns, 1781 erw‰hnt	
Totenhaufen	Indizort	48.24844641	14.44534339	Ort mit topographischen oder toponymischen Hinweisen auf eine Richtst‰tte im n‰heren Umfeld, jedoch ohne urkundlichen Nachweis.	
Wasenmeisterhaus	Abdecker	48.24965	13.79975	Grundherrschaft: Tollet Amt Kastlinged	https://doris.ooe.gv.at/themen/geschichte/hofnamenreport.aspx?hn_nr=16966
Schwarzes Kreuz	Kleindenkm‰ler	48.2499	14.608437	Burgfriedsgrenze, hier wurden die Delinquenten dem Landgericht Schwertberg ¸bergeben	https://www.yumpu.com/de/document/read/67294000/grenzuberschreitende-kleindenkmalforschung-oberosterreich-sudbohmen-die-roten-kreuze-rechtsaltertumer-aus-der-zeit-der-rodungen-durch-die-babenberger-und-fruhen-habsburger-band-2
Pranger Perg	Pranger	48.25	14.6342	1583 errichtet, Pagstein und Halseisen befinden sich im Heimathaus-Stadtmuseum Perg	https://www.ooegeschichte.at/forschung/kleindenkmal/265346
Galgenberg	Richtst‰tten	48.226336	14.76705	FK Franziszeischder Kataster	https://maps.arcanum.com/de/map/cadastral/?bbox=1643135.5984826116%2C6144232.849754936%2C1644224.8261356754%2C6144662.210874756&map-list=1&layers=3%2C4
Abdecker Hinterndobl	Abdecker	48.25603	13.63367	Wasenmeisterhaus in Limberg	https://doris.ooe.gv.at/themen/geschichte/hofnamenreport.aspx?hn_nr=8127
H‰usl im Radl	Galgenhaus	48.256107	14.57516	Galgenwiesh‰usl	https://doris.ooe.gv.at/themen/geschichte/hofnamenreport.aspx?hn_nr=69339
Totenlacke	Indizort	48.25667831	14.16463062	Ort mit topographischen oder toponymischen Hinweisen auf eine Richtst‰tte im n‰heren Umfeld, jedoch ohne urkundlichen Nachweis.	
Wasenmeister Pichling	Abdecker	48.2567	14.36506	Wasenmeisterhaus in der Oyden	https://doris.ooe.gv.at/themen/geschichte/hofnamenreport.aspx?hn_nr=96230
Galgenreste Weitenegg	Richtst‰tten	48.230015	15.290572	nur mehr Reste des Fundaments erhalten	https://www.lefnaer.com/recht/galgen_Galgenreste%20Weitenegg.html
Abdecker Scharlinz	Abdecker	48.26017	14.29494		
Schwertbauerngut	Indizort	48.26024817	13.41734902	Ort mit topographischen oder toponymischen Hinweisen auf eine Richtst‰tte im n‰heren Umfeld, jedoch ohne urkundlichen Nachweis.	
Schwertbauernh‰usl	Indizort	48.26116454	13.4197394	Ort mit topographischen oder toponymischen Hinweisen auf eine Richtst‰tte im n‰heren Umfeld, jedoch ohne urkundlichen Nachweis.	
Kronberg	Indizort	48.263469	14.496821	Ort mit topographischen oder toponymischen Hinweisen auf eine Richtst‰tte im n‰heren Umfeld, jedoch ohne urkundlichen Nachweis.	
H‰usl nebst dem Cramberg	Indizort	48.263513	14.494231	Ort mit topographischen oder toponymischen Hinweisen auf eine Richtst‰tte im n‰heren Umfeld, jedoch ohne urkundlichen Nachweis.	
Urtlmann	Indizort	48.26526782	13.92654788	Ort mit topographischen oder toponymischen Hinweisen auf eine Richtst‰tte im n‰heren Umfeld, jedoch ohne urkundlichen Nachweis.	
Galgenberger	Galgenhaus	48.2663	14.9509	genaue Lage unbekannt	https://maps.arcanum.com/de/map/europe-18century-firstsurvey/?bbox=1660073.7122402594%2C6149940.563554536%2C1668797.0880933052%2C6153375.4525131015&map-list=1&layers=163%2C165
Abdecker Linz	Abdecker	48.267593	14.32091		
Schwerdtm¸hle	Flurnamen	48.268452	14.694436	Rechts-/Symbolbezug zum Hochgericht (mˆglich, aber Nachweis nˆtig)	
Galgen unter Edla	Richtst‰tten	48.23107	15.13862	JL	https://maps.arcanum.com/de/map/europe-18century-firstsurvey/?bbox=1678650.2594911144%2C6143202.67178695%2C1694639.93034552%2C6147927.435597827&map-list=1&layers=163%2C165
Ramberger	Indizort	48.270029	13.858861	Ort mit topographischen oder toponymischen Hinweisen auf eine Richtst‰tte im n‰heren Umfeld, jedoch ohne urkundlichen Nachweis.	
Galgen	Richtst‰tten	48.23132	14.875255	Verschiedene historische Quellenangaben bezeugen den Ort dieser Richtst‰tte ˆstlich von Grein.	https://www.ooegeschichte.at/forschung/kleindenkmal/110637
Galgenberg Waldhausen	Flurnamen	48.27087	14.94194	Doris Basemap	https://wo.doris.at/weboffice/synserver?project=weboffice&client=core&user=guest&view=hh
Galgen Werfenstein	Richtst‰tten	48.23376	14.88581	Richtst‰tte der Herrschaft Werfenstein	
Haus im Ramberg	Indizort	48.270988	13.857066	Ort mit topographischen oder toponymischen Hinweisen auf eine Richtst‰tte im n‰heren Umfeld, jedoch ohne urkundlichen Nachweis.	https://maps.arcanum.com/de/map/europe-18century-firstsurvey/?bbox=1538698.9491734027%2C6150329.13788756%2C1547582.3650544204%2C6152954.272077728&map-list=1&layers=163%2C165
Abdecker Schwertberg	Abdecker	48.27315	14.58488	Wasenmeisterhaus	https://doris.ooe.gv.at/themen/geschichte/hofnamenreport.aspx?hn_nr=69675
Galgenfeld	Richtst‰tten	48.23778	13.825807	unter dem katholischen Landeshauptmann Lˆbl kam es hier zur Hinrichtung des Bauernf¸hrers Mathias Rˆll	https://www.ooegeschichte.at/ausstellungen/die-joerger-von-tollet-und-ihre-zeit/bluetezeit-der-reformation/gegenspieler-rudolf-ii
Abdecker	Abdecker	48.273477	14.167726	Abdeckerhaus	https://doris.ooe.gv.at/themen/geschichte/hofnamenreport.aspx?hn_nr=28169
Pranger Neumarkt	Pranger	48.273532	13.72773	Am Neumarkter Pranger wurde nach einer Hinrichtung die abgeschlagene rechte Hand des T‰ters samt Schandzettel befestigt ñ ein eindrucksvolles Beispiel f¸r den Pranger als dauerhaftes Mahnzeichen der Hoch- und Niedergerichtsbarkeit.	https://www.neumarkt-hausruckkreis.at/Kapitell_des_ehemaligen_Prangers
Uhrlg¸tl	Indizort	48.27440151	13.73454729	Ort mit topographischen oder toponymischen Hinweisen auf eine Richtst‰tte im n‰heren Umfeld, jedoch ohne urkundlichen Nachweis.	
Radauergut	Indizort	48.27471678	13.7357967	Ort mit topographischen oder toponymischen Hinweisen auf eine Richtst‰tte im n‰heren Umfeld, jedoch ohne urkundlichen Nachweis.	
Scheiben	Indizort	48.27541357	13.67731247	Ort mit topographischen oder toponymischen Hinweisen auf eine Richtst‰tte im n‰heren Umfeld, jedoch ohne urkundlichen Nachweis.	
Rothwisergut	Indizort	48.27550985	13.90518174	Ort mit topographischen oder toponymischen Hinweisen auf eine Richtst‰tte im n‰heren Umfeld, jedoch ohne urkundlichen Nachweis.	
Wasenstatt	Abdecker	48.27581	13.45121	Wasenstat, Abdecker an der Au, JL, FL	https://doris.ooe.gv.at/themen/geschichte/hofnamenreport.aspx?hn_nr=44007
Urtlbauer	Indizort	48.2762328	13.71666221	Ort mit topographischen oder toponymischen Hinweisen auf eine Richtst‰tte im n‰heren Umfeld, jedoch ohne urkundlichen Nachweis.	
Calvariberg	Flurnamen	48.2778493	13.73367132		
Rabenfurt	Indizort	48.279102	13.449422	Ort mit topographischen oder toponymischen Hinweisen auf eine Richtst‰tte im n‰heren Umfeld, jedoch ohne urkundlichen Nachweis.	
Ramesedt	Indizort	48.28584	13.857809	Ort mit topographischen oder toponymischen Hinweisen auf eine Richtst‰tte im n‰heren Umfeld, jedoch ohne urkundlichen Nachweis.	
Dumschedlhaus	Indizort	48.28786041	14.3297765	Ort mit topographischen oder toponymischen Hinweisen auf eine Richtst‰tte im n‰heren Umfeld, jedoch ohne urkundlichen Nachweis.	
Schˆrgendorf	Indizort	48.29345148	14.47159304	Ort mit topographischen oder toponymischen Hinweisen auf eine Richtst‰tte im n‰heren Umfeld, jedoch ohne urkundlichen Nachweis.	
Schˆrgenhumer	Indizort	48.2944667	13.9228297	Ort mit topographischen oder toponymischen Hinweisen auf eine Richtst‰tte im n‰heren Umfeld, jedoch ohne urkundlichen Nachweis.	
Gallenberg	Flurnamen	48.2948	14.03621	JLÝñ Josephinische Landesaufnahme (1775ñ1777)	https://maps.arcanum.com/de/map/europe-18century-firstsurvey/?bbox=1560733.0066127202%2C6154745.420482439%2C1565094.6945392431%2C6156462.864961722&map-list=1&layers=163%2C165
Schwertferbergut	Indizort	48.29515574	13.76889132	Ort mit topographischen oder toponymischen Hinweisen auf eine Richtst‰tte im n‰heren Umfeld, jedoch ohne urkundlichen Nachweis.	
Abdecker Kallham	Abdecker	48.29724	13.730221	Wasenmeisterhaus im Hochholz	https://doris.ooe.gv.at/themen/geschichte/hofnamenreport.aspx?hn_nr=12966
Abdecker Luftenberg	Abdecker	48.29857	14.42436	Abdeckerh‰usl	https://doris.ooe.gv.at/themen/geschichte/hofnamenreport.aspx?hn_nr=64950
Schˆrgenhueb	Indizort	48.298712	14.11407908	Ort mit topographischen oder toponymischen Hinweisen auf eine Richtst‰tte im n‰heren Umfeld, jedoch ohne urkundlichen Nachweis.	
Schedlhof	Indizort	48.2988315	14.6806062	Ort mit topographischen oder toponymischen Hinweisen auf eine Richtst‰tte im n‰heren Umfeld, jedoch ohne urkundlichen Nachweis.	
Wolfmayer	Indizort	48.30093878	14.10799108	Ort mit topographischen oder toponymischen Hinweisen auf eine Richtst‰tte im n‰heren Umfeld, jedoch ohne urkundlichen Nachweis.	
Anrath	Indizort	48.30094358	13.84753682	Ort mit topographischen oder toponymischen Hinweisen auf eine Richtst‰tte im n‰heren Umfeld, jedoch ohne urkundlichen Nachweis.	
Urtlbauer	Indizort	48.30262429	13.70505322	Ort mit topographischen oder toponymischen Hinweisen auf eine Richtst‰tte im n‰heren Umfeld, jedoch ohne urkundlichen Nachweis.	
Rad	Flurnamen	48.30319	14.03209	Rath‰usl	https://doris.ooe.gv.at/themen/geschichte/hofnamenreport.aspx?hn_nr=26335
Rotheneder	Indizort	48.3037791	14.358046	Ort mit topographischen oder toponymischen Hinweisen auf eine Richtst‰tte im n‰heren Umfeld, jedoch ohne urkundlichen Nachweis.	
Galgen	Richtst‰tten	48.24353	14.5116	Die Hochgerichtsbarkeit in Mauthausen wurde 1446 durch ein Privileg Ks. Fridrich III best‰tigt. Siehe auch Link Seite 10-11	https://www.yumpu.com/de/document/read/7491578/1294-mb-mauthausen
Gollingerfeld	Flurnamen	48.304188	14.02763	FK	https://maps.arcanum.com/de/map/cadastral/?bbox=1559302.8492989975%2C6156866.889225931%2C1563664.5372255205%2C6158584.333705214&map-list=1&layers=3%2C4
Galgen Tollet	Richtst‰tten	48.24817	13.79384	In der N‰he befindet sich das Marterl, das an die letzte Hinrichtung 1739 erinnern soll	https://www.ooegeschichte.at/ausstellungen/glaube-aberglaube-gelehrtenmagie/geister-und-gespenster/tolleter-schlossgeist
Galgen	Richtst‰tten	48.25164	14.60041	Galgen auf einem H¸gel (M¸hlberg) bei den beiden Galgenh‰usln, 1878 Galgenfundament freigelegt	https://de.m.wikipedia.org/wiki/Datei:Perg-Ober%C3%B6sterreich-Alte-Donaustrasse-B3c-Nischenblockpfeiler.JPG
Urtlbauerngut	Indizort	48.30598934	13.71490021	Ort mit topographischen oder toponymischen Hinweisen auf eine Richtst‰tte im n‰heren Umfeld, jedoch ohne urkundlichen Nachweis.	
Galgen	Richtst‰tten	48.25679	13.06835	JLÝñ Josephinische Landesaufnahme (1775ñ1777)	https://maps.arcanum.com/de/map/europe-18century-firstsurvey/?bbox=1453275.3298581934%2C6148640.496814556%2C1457637.0177847163%2C6150357.941293839&map-list=1&layers=163%2C165
Rad	Indizort	48.30735726	13.42188014	Ort mit topographischen oder toponymischen Hinweisen auf eine Richtst‰tte im n‰heren Umfeld, jedoch ohne urkundlichen Nachweis.	
Abdecker Hochstraþ	Abdecker	48.30737	14.53731	Abdeckerh‰usl in Puchholz	https://doris.ooe.gv.at/themen/geschichte/hofnamenreport.aspx?hn_nr=68419
Schedlberg	Indizort	48.307812	14.60489628	Ort mit topographischen oder toponymischen Hinweisen auf eine Richtst‰tte im n‰heren Umfeld, jedoch ohne urkundlichen Nachweis.	
Schedlbergerh‰usel	Indizort	48.31001763	14.25793031	Ort mit topographischen oder toponymischen Hinweisen auf eine Richtst‰tte im n‰heren Umfeld, jedoch ohne urkundlichen Nachweis.	
Schedlweber	Indizort	48.310238	14.01824969	Ort mit topographischen oder toponymischen Hinweisen auf eine Richtst‰tte im n‰heren Umfeld, jedoch ohne urkundlichen Nachweis.	
Hochgericht M¸nzbach	Richtst‰tten	48.26935	14.70229	Herrschaft Windhaag, Galgenb¸chel, JL	https://maps.arcanum.com/de/map/europe-18century-firstsurvey/?bbox=1636350.1080168313%2C6151064.089774319%2C1638530.9519800926%2C6151922.81201396&map-list=1&layers=here-aerial%2C163%2C165
Schedlmayergut	Indizort	48.3113795	14.6613019	Ort mit topographischen oder toponymischen Hinweisen auf eine Richtst‰tte im n‰heren Umfeld, jedoch ohne urkundlichen Nachweis.	
Gericht Th¸rnau	Richtst‰tten	48.27037	14.166343	"Richtst‰tte LG Hartheim oder Donautal ""Hangerholz"", JL"	https://maps.arcanum.com/de/map/europe-18century-firstsurvey/?bbox=1575337.3197745667%2C6151041.570472808%2C1579699.0077010896%2C6152759.014952091&map-list=1&layers=here-aerial%2C163%2C165
Galnbˆlksˆlden	Galgenhaus	48.31274	13.667143	Galnbˆlksˆlden	https://doris.ooe.gv.at/themen/geschichte/hofnamenreport.aspx?hn_nr=51720
Gollenbuch	Flurnamen	48.31315	13.6455	JLÝñ Josephinische Landesaufnahme (1775ñ1777)	https://maps.arcanum.com/de/map/europe-18century-firstsurvey/?bbox=1517073.3812459854%2C6157822.694350348%2C1521435.0691725083%2C6159540.138829631&map-list=1&layers=163%2C165
Schedlbergm¸hle	Indizort	48.31364615	14.60828537	Ort mit topographischen oder toponymischen Hinweisen auf eine Richtst‰tte im n‰heren Umfeld, jedoch ohne urkundlichen Nachweis.	
Scheibenbogen	Indizort	48.31405103	14.30066661	Ort mit topographischen oder toponymischen Hinweisen auf eine Richtst‰tte im n‰heren Umfeld, jedoch ohne urkundlichen Nachweis.	
Oberschedlbergergut	Indizort	48.31477308	14.6084083	Ort mit topographischen oder toponymischen Hinweisen auf eine Richtst‰tte im n‰heren Umfeld, jedoch ohne urkundlichen Nachweis.	
Schwerdfˆrgengut	Indizort	48.31733213	13.47471599	Ort mit topographischen oder toponymischen Hinweisen auf eine Richtst‰tte im n‰heren Umfeld, jedoch ohne urkundlichen Nachweis.	
Rotes Kreuz	Kleindenkm‰ler	48.322972	15.2965	Rotes Kreuz Neusiedl am Feldstein. Man erz‰hlt von der wilden Jagd, die ¸ber den Bergr¸cken fegt, einer Dienstmagd die dort oben ums Leben kam, ihren Grasbinkel verlor und am Weg, der dr¸ben nach Heiligen Blut f¸hrt, gefunden wurde. 	https://www.marterl.at/fileadmin/user_upload/Publikationen/Rote_Kreuze_in_Niederoesterreich.pdf
Galgen Waldhausen	Richtst‰tten	48.2709	14.9501	JLÝñ Josephinische Landesaufnahme (1775ñ1777)	https://maps.arcanum.com/de/map/europe-18century-firstsurvey/?bbox=1662068.2409470766%2C6151370.174849183%2C1666429.9288735995%2C6153087.619328466&map-list=1&layers=163%2C165
Geiþels‰ule Heilham	Kleindenkm‰ler	48.32396	14.296821	diese Wegs‰ule aus dem Jahre 1660 erinnert an eine alte Richtst‰tte	https://stadtgeschichte.linz.at/denkmal/default.asp?action=denkmaldetail&id=1125
Schedlmayrgut	Indizort	48.32466512	14.39824774	Ort mit topographischen oder toponymischen Hinweisen auf eine Richtst‰tte im n‰heren Umfeld, jedoch ohne urkundlichen Nachweis.	
Schedlmayerh‰usl	Indizort	48.3253745	14.39718067	Ort mit topographischen oder toponymischen Hinweisen auf eine Richtst‰tte im n‰heren Umfeld, jedoch ohne urkundlichen Nachweis.	
Wolfenkreuz	Indizort	48.32549	14.290102	Ort mit topographischen oder toponymischen Hinweisen auf eine Richtst‰tte im n‰heren Umfeld, jedoch ohne urkundlichen Nachweis.	https://maps.arcanum.com/de/map/secondsurvey-austria/?bbox=1588437.013194758%2C6160457.333942323%2C1596412.7393648895%2C6162819.715847761&map-list=1&layers=6
Wasenstatt Obernberg am Inn	Abdecker	48.32775	13.344176	Simon Ehgartnerische Behausung und Wasenstatt	https://doris.ooe.gv.at/themen/geschichte/hofnamenreport.aspx?hn_nr=40835
Todtengraber	Indizort	48.33024967	13.40660219	Ort mit topographischen oder toponymischen Hinweisen auf eine Richtst‰tte im n‰heren Umfeld, jedoch ohne urkundlichen Nachweis.	
Schedelhof	Indizort	48.3303811	14.4036362	ÑSchedl/Sch‰delì-Toponyme verweisen meist auf Richtst‰tten oder henkerliche Orte, an denen menschliche Ðberreste sichtbar waren.	
In der Scheibenwiesen	Indizort	48.3325145	14.2853277	Ort mit topographischen oder toponymischen Hinweisen auf eine Richtst‰tte im n‰heren Umfeld, jedoch ohne urkundlichen Nachweis.	
Wasenmeister Strohheim	Abdecker	48.33302	13.98152	Wasenmeisterhaus	https://doris.ooe.gv.at/themen/geschichte/hofnamenreport.aspx?hn_nr=24077
Hangl	Indizort	48.33305041	13.47018852	Ort mit topographischen oder toponymischen Hinweisen auf eine Richtst‰tte im n‰heren Umfeld, jedoch ohne urkundlichen Nachweis.	
Rabmergut	Indizort	48.334188	13.976248	Ort mit topographischen oder toponymischen Hinweisen auf eine Richtst‰tte im n‰heren Umfeld, jedoch ohne urkundlichen Nachweis.	
Schedlberger	Indizort	48.3352478	14.1947899	Ort mit topographischen oder toponymischen Hinweisen auf eine Richtst‰tte im n‰heren Umfeld, jedoch ohne urkundlichen Nachweis.	
Richtst‰tte	Richtst‰tten	48.27347	14.31395	ab 1820, zu den 2 Kreuzen an der Gabelung der Reichsstraþe, zwischen B1 und Brunnenfeld	https://anno.onb.ac.at/cgi-content/anno?aid=wez&datum=19311030&query=%22Galgenplatz%22&ref=anno-search&seite=29
Schˆrgenhuber	Indizort	48.33980285	14.61852411	Ort mit topographischen oder toponymischen Hinweisen auf eine Richtst‰tte im n‰heren Umfeld, jedoch ohne urkundlichen Nachweis.	
Gerichtslinde	Indizort	48.34224837	13.97677108	Ort mit topographischen oder toponymischen Hinweisen auf eine Richtst‰tte im n‰heren Umfeld, jedoch ohne urkundlichen Nachweis.	
Rothenb¸hel	Indizort	48.34296717	14.40985316	Ort mit topographischen oder toponymischen Hinweisen auf eine Richtst‰tte im n‰heren Umfeld, jedoch ohne urkundlichen Nachweis.	
Raab	Indizort	48.344017	14.712572	neben der Richtst‰tte Prandegg-Zellhof FK	https://maps.arcanum.com/de/map/cadastral/?bbox=1635722.775928131%2C6163348.977954933%2C1640164.4838686401%2C6164661.545050018&map-list=1&layers=3%2C4
Galgen am Freinberg	Richtst‰tten	48.30378	14.26456	Galgenberg, Galgenleithen samt Henkerleiten	https://anno.onb.ac.at/cgi-content/anno?aid=wez&datum=19311030&seite=28&zoom=33&query=%22Galgenplatz%22&ref=anno-search
Schwerdtbergergut	Indizort	48.34510479	13.95960819	Ort mit topographischen oder toponymischen Hinweisen auf eine Richtst‰tte im n‰heren Umfeld, jedoch ohne urkundlichen Nachweis.	
Pranger Peuerbach	Pranger	48.34535	13.77313	Die Granits‰ule stammt aus dem Jahr 1571 und war urspr¸nglich vor dem Pflegerhaus am Rathausplatz aufgestellt	https://www.oberoesterreich.at/oesterreich-poi/detail/170528/pranger.html
Galgenhof Landgericht Linz	Richtst‰tten	48.30549	14.29215	Eine besondere Bedeutung erlangte der ÑGalgenhofì des Landgerichts in der Zeit von 1934ñ38, St‰ndestaatregime.	https://afo.at/medien/publikationen/nachsatz-9/nachsatz-9eteil2.pdf
Wasenmeister Raab	Abdecker	48.347594	13.637707	JLÝñ Josephinische Landesaufnahme (1775ñ1777)	https://maps.arcanum.com/de/map/europe-18century-firstsurvey/?bbox=1514469.4089832038%2C6162907.077320589%2C1523183.230207714%2C6166341.966279155&map-list=1&layers=163%2C165
Wasenstatt am Hundsbugel	Abdecker	48.34845	13.44791	Wasenstatt am Hundsbugl, JL	https://doris.ooe.gv.at/themen/geschichte/hofnamenreport.aspx?hn_nr=43828
Scheibenwiesh‰usl	Indizort	48.349282	14.5083557	Ort mit topographischen oder toponymischen Hinweisen auf eine Richtst‰tte im n‰heren Umfeld, jedoch ohne urkundlichen Nachweis.	
Schedlhammergut	Indizort	48.349334	13.7395038	Ort mit topographischen oder toponymischen Hinweisen auf eine Richtst‰tte im n‰heren Umfeld, jedoch ohne urkundlichen Nachweis.	
Pranger Bad Zell	Pranger	48.34987	14.669471	Prangers‰ule am Marktplatz aus dem Jahr 1574. Auf der S‰ule stehend eine Statue in Ritterr¸stung, Schwert und Schild (darauf das Wappen derÝJˆrger von Tollet) ñ das einzig erhalteneÝPrangermandlÝOberˆsterreichs.	https://de.wikipedia.org/wiki/Liste_der_denkmalgesch%C3%BCtzten_Objekte_in_Bad_Zell
Richtst‰tte Linz	Richtst‰tten	48.305921	14.2866	Richtst‰tte und Pranger am Linzer Hauptplatz	
Galgen	Richtst‰tten	48.3062	14.350504	in der N‰he des Stettenhofes, LG Riedmark-Steyregg	
Hochgericht Eferding	Richtst‰tten	48.31072	13.99402	JLÝñ Josephinische Landesaufnahme (1775ñ1777)	https://maps.arcanum.com/de/map/europe-18century-firstsurvey/?bbox=1557013.201636792%2C6157939.08684802%2C1559194.0456000532%2C6158797.809087661&map-list=1&layers=163%2C165
Galgenbichl	Flurnamen	48.35283	14.67585	bereits 1391 in einem Regensburger Lehenskodex genannt (FK)	
Dreifaltigkeitskapelle beim Galgenb¸hel	Kleindenkm‰ler	48.35333	14.677876	Sp‰tbarocke Kapelle aus 1800 mit Wandmalereien und Heiligenfiguren hll. Sebastian und Leonhart(?)	https://de.wikipedia.org/wiki/Liste_der_denkmalgesch%C3%BCtzten_Objekte_in_Bad_Zell
Wasenmeister Andorf	Abdecker	48.35391	13.568909	Wasenmeisterhaus	https://doris.ooe.gv.at/themen/geschichte/hofnamenreport.aspx?hn_nr=48993
Steininger beim Galgenbichl	Galgenhaus	48.35419	14.68481	Der Steiniger musste Leiter und Holz zum Galgen bereitstellen, daf¸r wird ihm das Grundst¸ck beim Galgen als Viehweide ¸berlassen	https://doris.ooe.gv.at/themen/geschichte/hofnamenreport.aspx?hn_nr=72023
Galgen am Ochsenzagl	Richtst‰tten	48.31263	14.299538	am sog. Ochsenzagl, heute k.k. Tabakfabrik	
Rabenbergholz	Indizort	48.355219	13.445438	Ort mit topographischen oder toponymischen Hinweisen auf eine Richtst‰tte im n‰heren Umfeld, jedoch ohne urkundlichen Nachweis.	
Galgenmoos	Flurnamen	48.356365	13.718362		
Kronberg	Indizort	48.356837	13.507698	Ort mit topographischen oder toponymischen Hinweisen auf eine Richtst‰tte im n‰heren Umfeld, jedoch ohne urkundlichen Nachweis.	
Ruedauergut	Indizort	48.3569379	13.49440961	Ort mit topographischen oder toponymischen Hinweisen auf eine Richtst‰tte im n‰heren Umfeld, jedoch ohne urkundlichen Nachweis.	
Scheibenh‰usl	Indizort	48.36025394	14.49750548	Ort mit topographischen oder toponymischen Hinweisen auf eine Richtst‰tte im n‰heren Umfeld, jedoch ohne urkundlichen Nachweis.	
Schˆrgendorf	Indizort	48.36157242	13.80842045	Ort mit topographischen oder toponymischen Hinweisen auf eine Richtst‰tte im n‰heren Umfeld, jedoch ohne urkundlichen Nachweis.	
Edenrad	Indizort	48.36260905	13.49152976	Ort mit topographischen oder toponymischen Hinweisen auf eine Richtst‰tte im n‰heren Umfeld, jedoch ohne urkundlichen Nachweis.	
Kˆpfst‰tte	Richtst‰tten	48.31982	13.32907	Hier erinnert ein Tabernakelpfeiler an die ehemalige Kopfst‰tte	https://www.lefnaer.com/recht/galgenumfeld_Kopfstaette%20Obernberg%20am%20Inn.html
Ramesberger	Galgenhaus	48.364094	14.412216	500m westlich der Richtst‰tte Gugalea (Ram = Rabe) JL	https://maps.arcanum.com/de/map/europe-18century-firstsurvey/?bbox=1603077.2014747118%2C6166874.24766082%2C1607518.9094152208%2C6168186.8147559045&map-list=1&layers=here-aerial%2C163%2C165
Abdeckerhaus Hagenberg	Abdecker	48.36494	14.504952	Abdeckerhaus am Zlaim	https://doris.ooe.gv.at/themen/geschichte/hofnamenreport.aspx?hn_nr=67226
Wasenmeisterhaus Peuerbach	Abdecker	48.36538	13.787809	Wasenmeisterhaus in der Leithen	https://doris.ooe.gv.at/themen/geschichte/hofnamenreport.aspx?hn_nr=16262
Abdecker Bad M¸hllacken	Abdecker	48.3712	14.0754	Feldmetzgerh‰usl in der Waid, Wasenmaisterhaus	https://doris.ooe.gv.at/themen/geschichte/hofnamenreport.aspx?hn_nr=58168
Rabenstein	Indizort	48.374834	13.901476	Ort mit topographischen oder toponymischen Hinweisen auf eine Richtst‰tte im n‰heren Umfeld, jedoch ohne urkundlichen Nachweis.	
Unterrrader	Indizort	48.3748442	13.46380479	Ort mit topographischen oder toponymischen Hinweisen auf eine Richtst‰tte im n‰heren Umfeld, jedoch ohne urkundlichen Nachweis.	
Oberrader	Indizort	48.37713411	13.45961621	Ort mit topographischen oder toponymischen Hinweisen auf eine Richtst‰tte im n‰heren Umfeld, jedoch ohne urkundlichen Nachweis.	
Rotes Kreuz	Kleindenkm‰ler	48.37781	14.02188	Ort mit topographischen oder toponymischen Hinweisen auf eine Richtst‰tte im n‰heren Umfeld, jedoch ohne urkundlichen Nachweis.	
Todengraber	Indizort	48.37897916	13.45330038	Ort mit topographischen oder toponymischen Hinweisen auf eine Richtst‰tte im n‰heren Umfeld, jedoch ohne urkundlichen Nachweis.	
Galgenplatz Heilham	Richtst‰tten	48.3239	14.29671	heute erinnert noch eine Wegs‰ule an diese alte Richtst‰tte	https://anno.onb.ac.at/cgi-content/anno?aid=wez&datum=19311030&seite=28&zoom=33&query=%22Galgenplatz%22&ref=anno-search
beim Galgenholz	Flurnamen	48.38019	14.01743		
Rader	Indizort	48.38597821	13.43677241	Ort mit topographischen oder toponymischen Hinweisen auf eine Richtst‰tte im n‰heren Umfeld, jedoch ohne urkundlichen Nachweis.	
Wasenmeister Laufenbach	Abdecker	48.38673	13.51557	Abdeckersˆlden und Wasenmeisterei	https://doris.ooe.gv.at/themen/geschichte/hofnamenreport.aspx?hn_nr=46903
Rabner	Indizort	48.388595	13.748614	Ort mit topographischen oder toponymischen Hinweisen auf eine Richtst‰tte im n‰heren Umfeld, jedoch ohne urkundlichen Nachweis.	
Rathmayr	Indizort	48.38905931	13.74858301	Ort mit topographischen oder toponymischen Hinweisen auf eine Richtst‰tte im n‰heren Umfeld, jedoch ohne urkundlichen Nachweis.	
Totengraberh‰usl	Indizort	48.3912752	13.64986894	Ort mit topographischen oder toponymischen Hinweisen auf eine Richtst‰tte im n‰heren Umfeld, jedoch ohne urkundlichen Nachweis.	
Galgenweberh‰usl	Galgenhaus	48.39396	14.295556	Wildberg 39, Haslgraben 13	https://doris.ooe.gv.at/themen/geschichte/hofnamenreport.aspx?hn_nr=62634
Schedlgut	Indizort	48.39441801	13.75837963	Ort mit topographischen oder toponymischen Hinweisen auf eine Richtst‰tte im n‰heren Umfeld, jedoch ohne urkundlichen Nachweis.	
Kleinschedlgut	Indizort	48.3948744	13.75778298	Ort mit topographischen oder toponymischen Hinweisen auf eine Richtst‰tte im n‰heren Umfeld, jedoch ohne urkundlichen Nachweis.	
Galgen Raxendorf	Richtst‰tten	48.3374	15.28507	Jl	https://maps.arcanum.com/de/map/europe-18century-firstsurvey/?bbox=1698204.4492917645%2C6162303.506049303%2C1707087.8651727822%2C6164928.640239472&map-list=1&layers=163%2C165
Schˆrgengrub	Indizort	48.3952128	13.6147196	Ort mit topographischen oder toponymischen Hinweisen auf eine Richtst‰tte im n‰heren Umfeld, jedoch ohne urkundlichen Nachweis.	
Scheibenbirgl	Indizort	48.39594385	13.67152989	Ort mit topographischen oder toponymischen Hinweisen auf eine Richtst‰tte im n‰heren Umfeld, jedoch ohne urkundlichen Nachweis.	
Scheibenreifgut	Indizort	48.3975833	14.1816275	Ort mit topographischen oder toponymischen Hinweisen auf eine Richtst‰tte im n‰heren Umfeld, jedoch ohne urkundlichen Nachweis.	
Schedlbergergut	Indizort	48.39898326	13.75857894	Ort mit topographischen oder toponymischen Hinweisen auf eine Richtst‰tte im n‰heren Umfeld, jedoch ohne urkundlichen Nachweis.	
Schedlbergerh‰usl	Indizort	48.3993731	13.7534237	Ort mit topographischen oder toponymischen Hinweisen auf eine Richtst‰tte im n‰heren Umfeld, jedoch ohne urkundlichen Nachweis.	
Zwickelrader Sˆlde	Indizort	48.40272568	13.60789911	Ort mit topographischen oder toponymischen Hinweisen auf eine Richtst‰tte im n‰heren Umfeld, jedoch ohne urkundlichen Nachweis.	
Zwickelrader Forst	Indizort	48.4045278	13.60661461	Ort mit topographischen oder toponymischen Hinweisen auf eine Richtst‰tte im n‰heren Umfeld, jedoch ohne urkundlichen Nachweis.	
Schedlbergerhaus	Indizort	48.40465	14.296142	Wildberg 15	https://doris.ooe.gv.at/themen/geschichte/hofnamenreport.aspx?hn_nr=62641
Galgenl¸sse	Flurnamen	48.4054	14.833204	Der Flurname deutet auf den Galgen hin	https://www.ooegeschichte.at/media/migrated/bibliografiedb/hbl1993_1_50-58.pdf
Radmannsˆlde	Indizort	48.40585427	13.60580358	Ort mit topographischen oder toponymischen Hinweisen auf eine Richtst‰tte im n‰heren Umfeld, jedoch ohne urkundlichen Nachweis.	
Schedlgut	Indizort	48.40791794	13.78684568	Ort mit topographischen oder toponymischen Hinweisen auf eine Richtst‰tte im n‰heren Umfeld, jedoch ohne urkundlichen Nachweis.	
Kroneder	Indizort	48.40906	14.812019	Ort mit topographischen oder toponymischen Hinweisen auf eine Richtst‰tte im n‰heren Umfeld, jedoch ohne urkundlichen Nachweis.	
Rader	Indizort	48.40996006	13.67934753	Ort mit topographischen oder toponymischen Hinweisen auf eine Richtst‰tte im n‰heren Umfeld, jedoch ohne urkundlichen Nachweis.	
Richtergut	Indizort	48.4164881	14.1945196	Ort mit topographischen oder toponymischen Hinweisen auf eine Richtst‰tte im n‰heren Umfeld, jedoch ohne urkundlichen Nachweis.	
Raad	Indizort	48.4245717	13.61210673	Ort mit topographischen oder toponymischen Hinweisen auf eine Richtst‰tte im n‰heren Umfeld, jedoch ohne urkundlichen Nachweis.	
Radergut	Indizort	48.4253392	14.20197079	Ort mit topographischen oder toponymischen Hinweisen auf eine Richtst‰tte im n‰heren Umfeld, jedoch ohne urkundlichen Nachweis.	
in der Scheiben	Indizort	48.42727241	14.31441938	Ort mit topographischen oder toponymischen Hinweisen auf eine Richtst‰tte im n‰heren Umfeld, jedoch ohne urkundlichen Nachweis.	
Pranger Hellmonsˆdt	Pranger	48.43170519	14.29975078	Als Zeichen des Rechts wurde am Pranger dieÝFreihand, auch FreyungÝgenannt, ausgesteckt. (heute im Gemeindeamt aufbewahrt).Ý	https://www.ooegeschichte.at/forschung/kleindenkmal/110916
Rothe Lacken	Indizort	48.43230407	14.31522523	Ort mit topographischen oder toponymischen Hinweisen auf eine Richtst‰tte im n‰heren Umfeld, jedoch ohne urkundlichen Nachweis.	
Hof in der Scheiben	Indizort	48.43534721	14.87697729	Ort mit topographischen oder toponymischen Hinweisen auf eine Richtst‰tte im n‰heren Umfeld, jedoch ohne urkundlichen Nachweis.	
Schinderhˆlzl	Indizort	48.43782238	14.30939056	Ort mit topographischen oder toponymischen Hinweisen auf eine Richtst‰tte im n‰heren Umfeld, jedoch ohne urkundlichen Nachweis.	
Wasenmeisterh‰usl Unterweiþenbach	Abdecker	48.43842	14.77998	Wasenmeisterh‰usl	https://doris.ooe.gv.at/themen/geschichte/hofnamenreport.aspx?hn_nr=74024
Abdecker	Abdecker	48.438652	14.31617	Abdeckerhaus	https://doris.ooe.gv.at/themen/geschichte/hofnamenreport.aspx?hn_nr=62975
Ramersberg	Indizort	48.440697	13.986155	Ort mit topographischen oder toponymischen Hinweisen auf eine Richtst‰tte im n‰heren Umfeld, jedoch ohne urkundlichen Nachweis.	
Richtst‰tte Prandegg-Zellhof	Richtst‰tten	48.344583	14.707659	Die Richtst‰tte LG Prandegg (sp‰ter LG Zellhof) mit Sitz in Zellhof befand sich in der N‰he des Geroldslehnergutes	
Schˆrgenbichlh‰usl	Indizort	48.4425863	14.18893999	Ort mit topographischen oder toponymischen Hinweisen auf eine Richtst‰tte im n‰heren Umfeld, jedoch ohne urkundlichen Nachweis.	
Pranger Kefermarkt	Pranger	48.443034	14.538623	um ca. 1479 errichtet	https://de.m.wikipedia.org/wiki/Datei:Pranger_Kefermarkt.JPG
Pranger St. Leonhard	Pranger	48.44331	14.67775	Schlanker Obelisk, bezeichnet 1759, daneben erneuerter Mast mit Schwertarm auf originalem Stein, der vermutlich zur Aufnahme der Marktfreihe diente.	https://de.m.wikipedia.org/wiki/Datei:Sankt_Leonhard_Pranger.JPG
Galgenauerh‰usl	Galgenhaus	48.44417	14.053463	H‰usl in der Gallnau, Galgenauerh‰usl	https://doris.ooe.gv.at/themen/geschichte/hofnamenreport.aspx?hn_nr=57657
Strafenberg	Indizort	48.4549784	14.6539305	Ort mit topographischen oder toponymischen Hinweisen auf eine Richtst‰tte im n‰heren Umfeld, jedoch ohne urkundlichen Nachweis.	
Totengraberh‰usl	Abdecker	48.456375	13.4494	Totengraberh‰usl	https://doris.ooe.gv.at/themen/geschichte/hofnamenreport.aspx?hn_nr=43870
Galgenau	Flurnamen	48.45711	14.03629		
Abdecker	Abdecker	48.457391	13.44967	Wasenmeisterhaus	https://doris.ooe.gv.at/themen/geschichte/hofnamenreport.aspx?hn_nr=43882
Richtst‰tte und Abdecker	Richtst‰tten	48.34665	14.420061	ab 1756 (vorher Gugalea), Wasenmeisterh‰usl im untern Gries	https://doris.ooe.gv.at/themen/geschichte/hofnamenreport.aspx?hn_nr=64849
Wasenmeister	Abdecker	48.45944	14.52178	Wasenmeisterh‰usl, altes	https://doris.ooe.gv.at/themen/geschichte/hofnamenreport.aspx?hn_nr=67739
Richtst‰tte am Galgenbichl	Richtst‰tten	48.34991	14.57634	Richtst‰tte von Reichenstein, Ziegelreste? Halmenberg.	https://www.zobodat.at/pdf/JOM_141a_0229-0257.pdf
Ganglsiedlung	Flurnamen	48.46563	14.50115		
Abdecker	Abdecker	48.46597	14.52529	Abdeckerh‰usl	https://doris.ooe.gv.at/themen/geschichte/hofnamenreport.aspx?hn_nr=67873
Galgenbach	Flurnamen	48.466931	14.4967	OSM	https://www.openstreetmap.org/#map=17/48.462998/14.502795
Rabenberg	Indizort	48.466945	14.718162	Ort mit topographischen oder toponymischen Hinweisen auf eine Richtst‰tte im n‰heren Umfeld, jedoch ohne urkundlichen Nachweis.	
Hochgericht Salletwald	Richtst‰tten	48.35144	13.71979	"Bis 1779 wurden die Verurteilten auf einem der drei Galgen im Salletwald geh‰ngt und Frauen an der Frauenkˆpfstelle enthauptet,""https://www.nachrichten.at/oberoesterreich/innviertel/schaerding/Als-Maenner-noch-gehaengt-und-Frauen-gekoepft-wurden;art14856"	"287582"""
Scheibe	Flurnamen	48.46751	13.819978	 Der Flurname weist hier ziemlich sicher auf die nahe Richtst‰tte hin auf der Ñger‰dertì wurde, ÑRadscheibenì.	
Galgenau	Flurnamen	48.46874	14.49939	JLÝñ Josephinische Landesaufnahme (1775ñ1777)	https://maps.arcanum.com/de/map/europe-18century-firstsurvey/?bbox=1612699.4487627535%2C6183532.564882186%2C1617061.1366892764%2C6185250.009361469&map-list=1&layers=163%2C165
Wasenmeister	Abdecker	48.469944	13.819502	Abdeckerhaus	https://doris.ooe.gv.at/themen/geschichte/hofnamenreport.aspx?hn_nr=52761
Pranger Lasberg	Pranger	48.47088	14.53955	Entstehung: 1600 - 1700	https://de.m.wikipedia.org/wiki/Datei:Lasberg_Pranger.JPG
Frauenkˆpfstelle Salletwald	Richtst‰tten	48.35177	13.71792	"Bis 1779 wurden die Verurteilten auf einem der drei Galgen im Salletwald geh‰ngt und Frauen an der Frauenkˆpfstelle enthauptet,""https://www.nachrichten.at/oberoesterreich/innviertel/schaerding/Als-Maenner-noch-gehaengt-und-Frauen-gekoepft-wurden;art14856"	"287582"""
Rabenbergerhofstatt	Indizort	48.471596	14.296056	Ort mit topographischen oder toponymischen Hinweisen auf eine Richtst‰tte im n‰heren Umfeld, jedoch ohne urkundlichen Nachweis.	
Galgen Bad Zell	Richtst‰tten	48.35424	14.6812	Markt Zell hatte nicht nur die Niedere Gerichtsbarkeit inne, sondern auch den Blutbann	
Richtstattweg	Flurnamen	48.47425	13.44766	Kreuzberg	
Richtstattweg	Indizort	48.474251	13.447663	Ort mit topographischen oder toponymischen Hinweisen auf eine Richtst‰tte im n‰heren Umfeld, jedoch ohne urkundlichen Nachweis.	
Richtst‰tte Gugalea	Richtst‰tten	48.3631	14.419377	1272 - 1756 Richtst‰tte Markt Gallneukirchen, Steins‰ule Penkenberg	https://www.meinbezirk.at/urfahr-umgebung/c-lokales/penkenberg-marterl-wieder-am-urspruenglichen-ort_a1600211
Gerichtslinden Waxenberg	Flurnamen	48.47695895	14.1906354	wahrscheinlich um das Jahr 1650 gepflanzt, als das Land- und Blutgericht Waxenberg in d das Schloss verlegt wurde	https://www.ooegeschichte.at/forschung/kleindenkmal/265199
Rabenberg	Indizort	48.478322	14.713884	Ort mit topographischen oder toponymischen Hinweisen auf eine Richtst‰tte im n‰heren Umfeld, jedoch ohne urkundlichen Nachweis.	
Schˆrgenhub	Indizort	48.4786311	14.02316215	Ort mit topographischen oder toponymischen Hinweisen auf eine Richtst‰tte im n‰heren Umfeld, jedoch ohne urkundlichen Nachweis.	
Pranger Hofkirchen	Pranger	48.48288	13.8106	Auf dem Pranger sind die Jahreszahlen 1535 und 1735 zu lesen.	http://rat.imareal.sbg.ac.at/streitt/oo-landesmuseum/hofkirchen-pranger
Wasenmeister M¸nzkirchen	Abdecker	48.483471	13.57521	Wasenmeisterhaus vorn Thanraderholz	https://doris.ooe.gv.at/themen/geschichte/hofnamenreport.aspx?hn_nr=49369
Gut am Rabenstein	Indizort	48.486925	14.717448	Ort mit topographischen oder toponymischen Hinweisen auf eine Richtst‰tte im n‰heren Umfeld, jedoch ohne urkundlichen Nachweis.	https://maps.arcanum.com/de/map/europe-18century-firstsurvey/?bbox=1636972.1195724148%2C6187491.309218608%2C1641413.8275129239%2C6188803.876313692&map-list=1&layers=163%2C165
Hochgericht	Richtst‰tten	48.380144	14.02425	Landgericht Schaunburg, Fundament gut erhalten	
Galgen	Richtst‰tten	48.39501	14.29623	N‰he Schloss Wildberg, JL	https://maps.arcanum.com/de/map/europe-18century-firstsurvey/?bbox=1590121.1488223206%2C6170735.200556368%2C1594482.8367488435%2C6172452.645035651&map-list=1&layers=163%2C165
Galgen Kottes	Richtst‰tten	48.411924	15.30657	An der hˆchsten Stelle ist ein Fundament erhalten, angeblich vom Pulverturm FK	https://www.zwalk.at/galgenbergweg-42/
Richtst‰tte Ottenschlag	Richtst‰tten	48.420691	15.22802	Am Gerichtsberg, Gericht JL FL FK	https://maps.arcanum.com/de/map/europe-18century-firstsurvey/?bbox=1692962.899016321%2C6177159.467683034%2C1697404.60695683%2C6178472.034778118&map-list=1&layers=163
Arme-S¸nder-Kapelle	Kleindenkm‰ler	48.49131	13.75994	F¸nf Gehminuten vom Galgen, gut erhalten	https://www.lefnaer.com/recht/galgen_Galgen%20Rannariedl.html
Wasenmeister	Abdecker	48.49216	13.75988	Dienerhaus mit Wasenmeisterei	https://doris.ooe.gv.at/themen/geschichte/hofnamenreport.aspx?hn_nr=52296
Schedelmaiergut	Galgenhaus	48.4922	14.509653	Schedelmaiergut, 400m nordˆstlich vom Hochgericht Freistadt	https://doris.ooe.gv.at/themen/geschichte/hofnamenreport.aspx?hn_nr=67277
Schwerdtf¸hrer	Indizort	48.4935322	13.6867499	Ort mit topographischen oder toponymischen Hinweisen auf eine Richtst‰tte im n‰heren Umfeld, jedoch ohne urkundlichen Nachweis.	
Wasenmeisterh‰usl im Graben	Abdecker	48.496729	14.013267	Wasenmeisterh‰usl im Graben	https://doris.ooe.gv.at/themen/geschichte/hofnamenreport.aspx?hn_nr=56843
Wasenmeister Traberg	Abdecker	48.504401	14.21893	Wasenmeisterwerkstatt in Traberg	https://doris.ooe.gv.at/themen/geschichte/hofnamenreport.aspx?hn_nr=61184
Galgenberg	Richtst‰tten	48.44033	15.59983	"Fundort der ""Venus vom Galgenberg"", Jungsteinzeit"	https://de.wikipedia.org/wiki/Venus_vom_Galgenberg
Hussitenkreuz	Kleindenkm‰ler	48.50501	15.51686	in der N‰he des Pfeilers stand der gemauerte Galgen der Herrschaft von Gfˆhl die die Hˆhere Gerichtsbarkeit inne hatte	https://www.flickr.com/photos/112388998@N03/51280055247
Raad	Indizort	48.50590187	13.7063643	Ort mit topographischen oder toponymischen Hinweisen auf eine Richtst‰tte im n‰heren Umfeld, jedoch ohne urkundlichen Nachweis.	
Abdeckerh‰usel am M¸hlholz	Abdecker	48.50762	13.79222	Abdeckerh‰usel am M¸hlholz	https://doris.ooe.gv.at/themen/geschichte/hofnamenreport.aspx?hn_nr=52484
am Rabensteig	Indizort	48.510731	14.403578	Ort mit topographischen oder toponymischen Hinweisen auf eine Richtst‰tte im n‰heren Umfeld, jedoch ohne urkundlichen Nachweis.	https://maps.arcanum.com/de/map/europe-19century-secondsurvey/?bbox=1598844.3664700463%2C6191003.926368344%2C1607727.782351064%2C6193629.060558512&map-list=1&layers=158%2C164
Aschedlhofstatt	Indizort	48.51076684	14.01316223	Ort mit topographischen oder toponymischen Hinweisen auf eine Richtst‰tte im n‰heren Umfeld, jedoch ohne urkundlichen Nachweis.	
Abdecker	Abdecker	48.51096	14.506307	Abdeckerh‰usl	https://doris.ooe.gv.at/themen/geschichte/hofnamenreport.aspx?hn_nr=67119
Galgen	Richtst‰tten	48.440771	15.36571	Galgenfeld (FK)	https://maps.arcanum.com/de/map/europe-18century-firstsurvey/?bbox=1708652.2413813772%2C6179844.542689064%2C1713093.9493218863%2C6181157.109784148&map-list=1&layers=163
Galgenleiten	Flurnamen	48.51157	13.721539	Galgenleithen, FK Franziszeischder Kataster	https://maps.arcanum.com/de/map/cadastral/?bbox=1525035.8369675754%2C6191441.481777993%2C1529392.7475798302%2C6193158.926257276&map-list=1&layers=3%2C4
Rothb¸hel	Indizort	48.51629517	13.59427131	Ort mit topographischen oder toponymischen Hinweisen auf eine Richtst‰tte im n‰heren Umfeld, jedoch ohne urkundlichen Nachweis.	
Galgen	Richtst‰tten	48.44233	14.0528	JLÝñ Josephinische Landesaufnahme (1775ñ1777)	https://maps.arcanum.com/de/map/europe-18century-firstsurvey/?bbox=1562663.7537159151%2C6180031.820622208%2C1567025.441642438%2C6181749.265101491&map-list=1&layers=163%2C165
Richterberg	Indizort	48.53150614	14.80052844	Ort mit topographischen oder toponymischen Hinweisen auf eine Richtst‰tte im n‰heren Umfeld, jedoch ohne urkundlichen Nachweis.	
Abdecker	Abdecker	48.53373	14.36788		
Scheibner	Indizort	48.53940967	14.16523067	Ort mit topographischen oder toponymischen Hinweisen auf eine Richtst‰tte im n‰heren Umfeld, jedoch ohne urkundlichen Nachweis.	
Schedlh‰usl	Indizort	48.5426989	14.3827744	Ort mit topographischen oder toponymischen Hinweisen auf eine Richtst‰tte im n‰heren Umfeld, jedoch ohne urkundlichen Nachweis.	
Schergeneck (Rottbauer)	Indizort	48.54540685	13.586458	Ort mit topographischen oder toponymischen Hinweisen auf eine Richtst‰tte im n‰heren Umfeld, jedoch ohne urkundlichen Nachweis.	
Schedlgut	Indizort	48.54635041	14.35043852	Ort mit topographischen oder toponymischen Hinweisen auf eine Richtst‰tte im n‰heren Umfeld, jedoch ohne urkundlichen Nachweis.	
Todtengraber	Indizort	48.54766134	13.5805079	Ort mit topographischen oder toponymischen Hinweisen auf eine Richtst‰tte im n‰heren Umfeld, jedoch ohne urkundlichen Nachweis.	
Abdecker Rainbach	Abdecker	48.54777	14.470292		
Abdecker	Abdecker	48.55023	13.887544		
Scheiben	Indizort	48.55131764	14.41877774	Ort mit topographischen oder toponymischen Hinweisen auf eine Richtst‰tte im n‰heren Umfeld, jedoch ohne urkundlichen Nachweis.	
Schedlhaus	Indizort	48.55476375	14.35583338	Ort mit topographischen oder toponymischen Hinweisen auf eine Richtst‰tte im n‰heren Umfeld, jedoch ohne urkundlichen Nachweis.	
Rader	Indizort	48.55579125	13.44829203	Ort mit topographischen oder toponymischen Hinweisen auf eine Richtst‰tte im n‰heren Umfeld, jedoch ohne urkundlichen Nachweis.	
Scheiben	Indizort	48.55921579	14.44357278	Ort mit topographischen oder toponymischen Hinweisen auf eine Richtst‰tte im n‰heren Umfeld, jedoch ohne urkundlichen Nachweis.	
Schwertschmiede	Indizort	48.56552051	13.49333272	Ort mit topographischen oder toponymischen Hinweisen auf eine Richtst‰tte im n‰heren Umfeld, jedoch ohne urkundlichen Nachweis.	
Bildstock beim Gerichtsb¸hel	Kleindenkm‰ler	48.56621	15.33886	Am Gerichtsb¸hel, wo die Wege von Marbach und Rastenberg gegen Rastenfeld zusammentreffen, stand der Galgen und ist noch der Bildstock mit dem Bilde der schmerzhaften Gottesmutter vorhanden, wo die Verurteilten ihr letztes Gebet sprechen konnten. Schon 1456 wird das Galgenfeld (urspr¸nglicher Richtplatz am alten Lichtenfelser Wege) erw‰hnt und 1563 der Acker an der Marter beim Gericht.	https://www.marterl.at/suche/detail?oid=8302&cHash=2ee566950ea5ea0cb1274b5633232693
Galgenfeld Rastenfeld	Flurnamen	48.57842	15.31766	FK Franziszeischder Kataster	https://maps.arcanum.com/de/map/cadastral/?bbox=1703443.9150086644%2C6203015.304232853%2C1707441.3327222655%2C6204196.495185574&map-list=1&layers=3%2C4
Scheibenacker	Indizort	48.57843844	13.83215178	Ort mit topographischen oder toponymischen Hinweisen auf eine Richtst‰tte im n‰heren Umfeld, jedoch ohne urkundlichen Nachweis.	
Galgenberg	Flurnamen	48.58517	14.55512	zwischen Windhaag bei Freistadt und Pieberschlag, Galgenberg (JL)	https://maps.arcanum.com/de/map/europe-18century-firstsurvey/?bbox=1619075.4997948513%2C6203773.190582378%2C1623437.1877213742%2C6205490.635061661&map-list=1&layers=163%2C165
