name,kategorie,lat,lng,beschreibung,link
"Wels – Richtstätte",Richtstätten,48.163,14.040,"Dreischläfriges Galgengerüst im Franziszeischen Kataster.","orte/wels-hochgericht.html"
"Waizenkirchen – Pranger",Pranger,48.311,13.826,"Erhaltener Pranger am Hauptplatz.","orte/waizenkirchen-pranger.html"
"Gallspach – Armesünderkapelle",Kleindenkmäler,48.197,13.748,"Armesünderkapelle am ehemaligen Richtplatz.","orte/gallspach-armesuenderkapelle.html"
"Lichtenegg – Abdeckerhaus",Abdecker,48.147,13.987,"Im Kataster als Abdecker bezeichnet.","orte/lichtenegg-abdeckerhaus.html"
"Gunskirchen – Galgenfeld",Flurnamen,48.158,13.980,"Flurname im Osten von Gunskirchen.","orte/gunskirchen-galgenfeld.html"
"Weißkirchen – Galgenhaus",Galgenhäuser,48.185,14.055,"Wohnhaus des Scharfrichters laut Kataster.","orte/weisskirchen-galgenhaus.html"
